     2.11           OBSERVATION DATA    G (GPS)             RINEX VERSION / TYPE
teqc  2019Feb25     root                20210227 05:24:30UTCPGM / RUN BY / DATE
Linux 2.4.21-27.ELsmp|Opteron|gcc|Linux 64|=+               COMMENT
     2.11           OBSERVATION DATA    M (MIXED)           COMMENT
teqc  2010Oct21     CORS/NGS/NOAA       20111123 02:47:03UTCCOMMENT
Solaris x86 5.10|AMD64|cc SC5.8 -xarch=amd64|=+|=+          COMMENT
teqc  2010Oct21     CORS-ADM Account    20111123 02:38:35UTCCOMMENT
teqc  2010Oct21     CORS/NGS/NOAA       20111123 02:37:24UTCCOMMENT
+38.838901075 (latitude)                                    COMMENT
-081.10877332 (longitude)                                   COMMENT
+296.835      (elevation)                                   COMMENT
+.000000      (antenna height)                              COMMENT
BIT 2 OF LLI FLAGS DATA COLLECTED UNDER A/S CONDITION       COMMENT
 SNR is mapped to RINEX snr flag value [0-9]                COMMENT
  L1 & L2: min(max(int(snr_dBHz/6), 0), 9)                  COMMENT
Forced Modulo Decimation to 30 seconds                      COMMENT
WVMZ                                                        MARKER NAME
19                                                          MARKER NUMBER
Peter J Dailey      Rahall Appalachian Transportation InstitOBSERVER / AGENCY
4922K62061          TRIMBLE NETR5       4.41                REC # / TYPE / VERS
1440921295          TRM57971.00     NONE                    ANT # / TYPE
   768899.6923 -4915014.5097  3978588.7186                  APPROX POSITION XYZ
        0.0000        0.0000        0.0000                  ANTENNA: DELTA H/E/N
     1     1                                                WAVELENGTH FACT L1/2
     8    L1    L2    C1    C2    P1    P2    S1    S2      # / TYPES OF OBSERV
    30.0000                                                 INTERVAL
teqc.w windowed: start @ 2011 Nov 22 00:00:00.000           COMMENT
teqc.w windowed:  end  @ 2011 Nov 23 00:00:00.000           COMMENT
teqc.w edited: all GLONASS satellites excluded              COMMENT
  2011    11    22     0     0    0.0000000     GPS         TIME OF FIRST OBS
                                                            END OF HEADER
 11 11 22  0  0  0.0000000  0 11G03G05G06G09G14G15G18G21G22G26G29
 126679317.031 6  98711243.05843  24106273.117
  24106281.207          38.800          19.000
 133174200.713 6 103772200.54244  25342188.141
  25342195.254          40.800          24.000
 126411931.472 7  98502867.34844  24055375.930
  24055383.375          43.700          29.600
 115582886.398 8  90064668.66546  21994678.203
  21994684.109          48.300          36.200
 131802940.888 5 102703479.63842  25081227.586
  25081234.789          33.400          16.900
 110194088.536 8  85865597.13847  20969195.547
  20969199.898          51.300          42.300
 111352427.117 8  86768162.19446  21189622.328
  21189626.590          50.100          40.600
 107396186.583 7  83685426.10446  20436780.414
  20436783.453          47.800          39.600
 124680489.470 7  97153717.80645  23725901.297
  23725905.664          46.000          30.400
 123424007.508 7  96174588.30944  23486748.898
  23486755.496          44.100          27.000
 128141611.105 6  99850595.75644  24384482.289
  24384489.934          41.500          28.100
 11 11 22  0  0 30.0000000  0 11G03G05G06G09G14G15G18G21G22G26G29
 126666200.697 6  98701022.64443  24103777.477
  24103785.699          40.900          19.900
 133257079.098 6 103836781.10143  25357959.844
  25357966.609          39.600          22.500
 126404241.128 7  98496874.90544  24053912.375
  24053919.461          42.400          28.900
 115495819.090 7  89996824.06345  21978109.906
  21978114.734          47.700          35.100
 131702682.334 5 102625356.38342  25062148.320
  25062156.113          31.800          16.900
 110252538.261 8  85911142.38047  20980318.141
  20980322.242          50.400          42.900
 111312829.255 8  86737306.74746  21182086.969
  21182090.863          50.500          39.500
 107375152.461 8  83669035.88646  20432777.680
  20432781.078          48.300          39.600
 124604296.043 7  97094346.39345  23711402.461
  23711406.230          46.300          30.400
 123536837.905 7  96262508.06844  23508219.422
  23508226.234          42.100          26.000
 128242386.633 6  99929122.08544  24403659.906
  24403667.219          41.400          26.600
 11 11 22  0  1  0.0000000  0 11G03G05G06G09G14G15G18G21G22G26G29
 126653635.764 6  98691231.84743  24101386.805
  24101393.902          39.600          19.600
 133339989.965 6 103901386.98443  25373736.742
  25373743.363          39.100          22.500
 126397051.639 7  98491272.78644  24052543.688
  24052551.621          42.200          28.800
 115409146.834 8  89929287.27945  21961616.320
  21961620.891          48.100          35.000
 131602542.825 5 102547325.73542  25043091.625
  25043100.383          32.000          16.900
 110311328.602 8  85956953.04847  20991505.594
  20991510.121          50.800          42.600
 111273392.880 8  86706577.13646  21174582.578
  21174586.238          50.700          39.800
 107354625.622 8  83653040.96646  20428871.336
  20428874.926          48.000          40.100
 124528149.513 7  97035011.51545  23696911.953
  23696915.305          45.800          30.800
 123649788.892 7  96350521.77044  23529714.516
  23529719.836          42.700          25.400
 128343129.104 6 100007622.67444  24422829.445
  24422837.531          40.900          27.400
 11 11 22  0  1 30.0000000  0 11G03G05G06G09G14G15G18G21G22G26G29
 126641622.025 6  98681870.62843  24099099.750
  24099107.844          40.900          20.600
 133422933.429 6 103966018.28543  25389519.563
  25389526.883          38.400          22.200
 126390362.555 7  98486060.53744  24051270.898
  24051278.676          42.400          29.800
 115322872.687 8  89862060.73446  21945199.016
  21945204.617          49.600          36.500
 131502523.380 5 102469388.65042  25024058.555
  25024067.016          35.500          15.600
 110370457.100 8  86003027.20847  21002757.203
  21002761.508          50.500          42.300
 111234118.449 8  86675973.72346  21167108.477
  21167112.895          50.300          39.700
 107334607.442 7  83637442.40246  20425062.367
  20425065.391          47.900          40.400
 124452049.833 7  96975713.16245  23682430.852
  23682433.602          44.300          31.300
 123762857.617 7  96438627.25844  23551230.500
  23551235.613          43.000          26.000
 128443835.639 7 100086095.24944  24441994.094
  24442000.742          42.900          25.800
 11 11 22  0  2  0.0000000  0 11G03G05G06G09G14G15G18G21G22G26G29
 126630159.281 6  98672938.66543  24096917.820
  24096927.730          39.200          19.000
 133505909.466 6 104030674.99043  25405309.469
  25405317.520          39.900          22.300
 126384173.520 7  98481237.95844  24050093.398
  24050100.430          42.400          28.200
 115237000.185 8  89795147.15546  21928858.266
  21928864.164          49.400          37.800
 131402625.247 6 102391546.11142  25005049.641
  25005056.840          38.700          17.800
 110429921.849 8  86049363.39147  21014073.125
  21014077.586          50.600          42.700
 111195006.611 8  86645496.99646  21159665.898
  21159670.246          49.700          40.500
 107315099.331 7  83622241.28946  20421349.633
  20421353.285          47.500          40.200
 124375997.432 7  96916451.64045  23667958.719
  23667962.152          45.800          31.400
 123876041.599 7  96526822.55444  23572769.438
  23572774.246          43.400          26.500
 128544503.534 7 100164537.73744  24461150.508
  24461157.328          42.600          25.800
 11 11 22  0  2 30.0000000  0 11G03G05G06G09G14G15G18G21G22G26G29
 126619246.953 6  98664435.66743  24094840.766
  24094850.309          40.200          19.600
 133588917.251 6 104095356.36543  25421105.906
  25421112.770          40.700          22.600
 126378483.869 7  98476804.53844  24049010.438
  24049016.945          43.200          29.000
 115151532.141 8  89728548.76846  21912594.195
  21912600.980          49.500          38.700
 131302849.361 6 102313798.80342  24986062.000
  24986069.348          36.500          16.900
 110489720.161 8  86095959.48547  21025452.344
  21025456.969          51.500          42.400
 111156057.419 8  86615146.99946  21152254.180
  21152258.641          50.200          40.300
 107296102.366 7  83607438.47546  20417734.867
  20417738.578          47.600          39.900
 124299992.336 7  96857226.95345  23653495.086
  23653498.469          44.300          31.300
 123989337.682 7  96615105.22244  23594328.438
  23594333.957          42.900          27.200
 128645129.549 7 100242947.60544  24480298.523
  24480305.965          42.100          26.000
 11 11 22  0  3  0.0000000  0 11G03G05G06G09G14G15G18G21G22G26G29
 126608885.347 6  98656361.79743  24092869.750
  24092878.379          39.600          18.600
 133671956.888 6 104160062.53543  25436907.320
  25436914.266          39.200          21.500
 126373293.771 7  98472760.33044  24048023.125
  24048029.945          42.700          29.400
 115066472.533 8  89662268.61546  21896407.672
  21896414.008          48.500          37.500
 131203197.759 5 102236148.39542  24967098.297
  24967106.078          33.800          16.300
 110549850.249 8  86142814.10447  21036894.828
  21036899.195          52.100          42.500
 111117272.370 8  86584924.92446  21144873.859
  21144877.887          50.600          40.800
 107277618.345 7  83593035.35846  20414217.414
  20414221.098          46.800          39.700
 124224035.126 7  96798039.59345  23639040.969
  23639044.777          46.300          32.300
 124102743.912 7  96703473.71143  23615907.961
  23615914.043          42.100          23.900
 128745711.558 7 100321323.15644  24499438.188
  24499446.363          42.000          25.800
 11 11 22  0  3 30.0000000  0 11G03G05G06G09G14G15G18G21G22G26G29
 126599074.073 6  98648716.72843  24091003.117
  24091010.516          40.500          19.000
 133755028.510 6 104224793.65843  25452716.023
  25452722.855          39.900          21.500
 126368602.500 7  98469104.86144  24047130.391
  24047137.023          43.200          29.100
 114981824.305 8  89596309.03346  21880299.555
  21880305.145          49.200          37.300
 131103671.726 6 102158595.83142  24948159.609
  24948166.918          37.700          16.900
 110610310.056 8  86189925.65147  21048399.828
  21048404.195          50.500          42.400
 111078651.088 8  86554830.45146  21137524.570
  21137528.430          50.200          40.800
 107259648.571 7  83579032.94546  20410798.102
  20410801.473          47.100          40.200
 124148126.128 7  96738889.84745  23624595.531
  23624599.297          46.500          32.300
 124216257.345 6  96791925.66344  23637510.211
  23637515.023          39.600          24.200
 128846246.319 6 100399661.91344  24518569.688
  24518577.121          41.400          25.600
 11 11 22  0  4  0.0000000  0 11G03G05G06G09G14G15G18G21G22G26G29
 126589813.506 6  98641500.79043  24089241.047
  24089248.617          39.900          19.000
 133838132.383 6 104289549.89343  25468529.828
  25468537.195          39.200          20.100
 126364410.172 7  98465838.14944  24046332.563
  24046339.434          43.300          29.800
 114897591.337 8  89530673.02146  21864270.586
  21864275.449          50.000          36.100
 131004272.921 6 102081142.35242  24929243.555
  24929252.301          37.100          16.300
 110671097.897 8  86237292.80547  21059967.148
  21059971.992          51.000          43.400
 111040194.752 8  86524864.50846  21130206.094
  21130210.645          50.300          40.700
 107242195.166 7  83565432.89946  20407476.477
  20407480.008          46.600          39.500
 124072266.240 7  96679778.32445  23610159.648
  23610162.953          47.000          31.900
 124329876.149 7  96880459.81844  23659130.820
  23659136.129          42.100          24.800
 128946731.807 7 100477962.23044  24537691.633
  24537699.117          43.100          25.600
 11 11 22  0  4 30.0000000  0 11G03G05G06G09G14G15G18G21G22G26G29
 126581101.945 6  98634712.64443  24087582.227
  24087590.867          40.400          18.600
 133921266.899 6 104354330.00443  25484349.813
  25484357.238          40.100          22.900
 126360714.919 6  98462958.79344  24045628.281
  24045635.957          41.600          26.500
 114813775.356 8  89465361.89846  21848321.023
  21848325.996          49.800          37.300
 130905001.260 5 102003787.97842  24910352.656
  24910360.941          32.000          14.800
 110732209.769 8  86284912.44747  21071596.531
  21071600.918          49.900          42.400
 111001902.708 8  86495026.58346  21122919.664
  21122923.590          50.500          39.900
 107225257.974 7  83552235.09646  20404253.633
  20404257.000          45.400          39.500
 123996454.815 7  96620704.59445  23595733.445
  23595737.102          46.600          31.800
 124443596.262 6  96969072.88244  23680770.586
  23680776.609          41.400          25.900
 129047164.007 6 100556221.07544  24556802.813
  24556810.965          41.400          26.800
 11 11 22  0  5  0.0000000  0 11G03G05G06G09G14G15G18G21G22G26G29
 126572940.468 6  98628353.13542  24086029.664
  24086037.496          38.900          17.800
 134004433.235 6 104419134.89143  25500175.141
  25500182.398          37.600          19.900
 126357517.528 6  98460467.38144  24045020.469
  24045028.555          41.900          27.000
 114730381.099 8  89400379.40646  21832451.891
  21832456.574          50.200          36.900
 130805859.427 5 101926534.93042  24891486.938
  24891494.719          34.300          16.300
 110793644.837 8  86332783.94047  21083287.258
  21083291.652          51.000          42.100
 110963776.927 8  86465318.21346  21115664.484
  21115668.570          50.700          40.700
 107208839.624 7  83539441.60046  20401129.094
  20401132.836          47.700          39.400
 123920692.257 7  96561668.90345  23581316.305
  23581319.641          46.700          31.700
 124557416.429 6  97057763.86444  23702430.008
  23702436.754          40.600          24.500
 129147541.581 6 100634437.32944  24575903.898
  24575912.023          41.500          24.800
 11 11 22  0  5 30.0000000  0 11G03G05G06G09G14G15G18G21G22G26G29
 126565328.764 6  98622422.02743  24084580.992
  24084589.496          41.600          19.000
 134087631.603 6 104483964.75043  25516007.531
  25516014.969          37.600          21.300
 126354817.645 7  98458363.63144  24044506.672
  24044513.672          42.000          26.400
 114647411.871 8  89335728.09946  21816662.953
  21816668.910          48.900          37.700
 130706848.851 5 101849383.98542  24872645.008
  24872654.109          35.800          16.300
 110855401.102 8  86380905.71847  21095038.992
  21095043.551          50.700          42.300
 110925817.855 8  86435739.74146  21108441.164
  21108445.023          50.500          40.700
 107192941.480 7  83527053.43746  20398104.000
  20398107.555          47.900          39.600
 123844979.229 7  96502671.86245  23566908.352
  23566912.789          46.700          30.900
 124671333.923 7  97146530.73644  23724107.656
  23724113.996          42.700          25.400
 129247861.218 6 100712608.40643  24594995.055
  24595003.363          41.800          22.900
 11 11 22  0  6  0.0000000  0 11G03G05G06G09G14G15G18G21G22G26G29
 126558266.047 6  98616918.67843  24083236.914
  24083244.461          39.900          18.600
 134170861.421 6 104548819.06743  25531845.828
  25531853.367          37.600          18.600
 126352614.334 6  98456646.83744  24044087.266
  24044094.324          40.400          26.900
 114564870.194 8  89271409.99146  21800955.422
  21800962.137          48.900          37.900
 130607970.509 6 101772336.08642  24853829.875
  24853837.500          37.200          17.400
 110917476.595 8  86429276.22847  21106851.922
  21106856.617          49.900          42.700
 110888025.256 8  86406291.00546  21101249.234
  21101253.473          50.500          41.400
 107177564.980 7  83515071.77046  20395177.781
  20395181.645          45.400          39.900
 123769316.100 7  96443713.70045  23552509.813
  23552513.773          45.300          31.000
 124785345.982 7  97235371.27244  23745803.891
  23745809.465          42.900          25.900
 129348120.396 7 100790732.46744  24614073.320
  24614082.195          43.000          25.300
 11 11 22  0  6 30.0000000  0 11G03G05G06G09G14G15G18G21G22G26G29
 126551752.231 6  98611843.02743  24081997.695
  24082005.633          40.100          19.900
 134254122.642 5 104613697.97742  25547689.766
  25547697.773          34.600          16.900
 126350907.259 6  98455316.71044  24043762.281
  24043769.750          40.500          25.300
 114482759.855 8  89207427.99846  21785329.828
  21785336.621          48.900          37.600
 130509226.104 6 101695392.59942  24835039.133
  24835046.469          39.300          17.400
 110979868.434 8  86477893.25947  21118724.703
  21118729.246          51.900          43.000
 110850400.675 8  86376973.17546  21094089.539
  21094093.691          50.800          41.200
 107162710.844 7  83503497.11946  20392351.289
  20392354.820          46.900          39.800
 123693703.455 7  96384794.86645  23538121.117
  23538125.004          45.800          30.900
 124899450.595 7  97324283.97444  23767517.031
  23767522.695          42.600          26.200
 129448316.317 7 100868807.15644  24633140.094
  24633148.273          44.000          26.500
 11 11 22  0  7  0.0000000  0 11G03G05G06G09G14G15G18G21G22G26G29
 126545785.820 6  98607193.95243  24080863.016
  24080870.125          40.900          19.000
 134337414.511 6 104678600.72143  25563540.211
  25563547.250          38.400          18.300
 126349695.298 6  98454372.33444  24043530.727
  24043539.359          39.100          24.700
 114401082.983 8  89143783.74546  21769787.359
  21769793.523          49.900          37.500
 130410615.733 6 101618553.42042  24816273.414
  24816280.754          37.800          17.400
 111042573.957 8  86526754.71447  21130656.914
  21130661.410          50.500          42.500
 110812943.214 8  86347785.56846  21086961.711
  21086965.945          50.300          41.200
 107148379.772 7  83492330.06946  20389624.078
  20389627.582          47.500          39.900
 123618140.635 7  96325914.86144  23523742.188
  23523746.055          44.600          29.100
 125013644.379 6  97413266.15243  23789246.766
  23789253.172          41.500          22.000
 129548445.430 7 100946829.75943  24652194.125
  24652202.465          42.200          22.200
 11 11 22  0  7 30.0000000  0 11G03G05G06G09G14G15G18G21G22G26G29
 126540367.217 6  98602971.72743  24079831.531
  24079839.016          37.400          21.100
 134420737.677 6 104743527.76743  25579396.008
  25579402.727          38.900          19.000
 126348978.290 6  98453813.75344  24043395.234
  24043402.824          38.900          24.600
 114319843.436 8  89080480.24446  21754328.594
  21754333.375          50.400          38.400
 130312141.675 6 101541820.62342  24797535.492
  24797542.020          37.700          13.900
 111105591.802 8  86575859.53146  21142648.563
  21142653.082          50.600          41.800
 110775654.507 8  86318729.47646  21079865.813
  21079870.043          50.700          41.300
 107134573.711 8  83481572.10846  20386996.977
  20387000.504          48.200          40.300
 123542628.480 7  96267074.32545  23509372.813
  23509376.414          44.100          30.400
 125127925.351 7  97502316.25444  23810993.406
  23811000.082          42.500          25.300
 129648505.752 7 101024798.81643  24671235.000
  24671241.602          43.300          21.300
 11 11 22  0  8  0.0000000  0 11G03G05G06G09G14G15G18G21G22G26G29
 126535496.223 6  98599176.25543  24078904.648
  24078911.734          39.400          20.400
 134504092.017 6 104808479.11942  25595257.578
  25595265.555          37.000          16.900
 126348756.067 6  98453640.62244  24043352.305
  24043360.129          38.200          24.300
 114239044.722 8  89017520.24146  21738953.305
  21738957.543          50.900          37.400
 130213805.274 6 101465195.00342  24778821.844
  24778828.879          37.500          15.600
 111168919.990 8  86625206.18147  21154699.672
  21154704.156          51.700          42.300
 110738535.265 8  86289805.42546  21072802.117
  21072806.430          51.100          41.700
 107121294.258 7  83471224.49246  20384469.727
  20384473.324          47.900          40.300
 123467167.464 7  96208273.63744  23495012.922
  23495015.859          44.400          27.400
 125242291.425 6  97591432.66744  23832757.508
  23832763.590          41.100          26.300
 129748494.873 7 101102712.40943  24690262.117
  24690268.727          44.100          22.500
 11 11 22  0  8 30.0000000  0 11G03G05G06G09G14G15G18G21G22G26G29
 126531172.010 6  98595806.72843  24078080.805
  24078089.047          40.200          19.600
 134587476.620 6 104873454.10842  25611125.742
  25611132.953          37.700          17.800
 126349027.227 6  98453851.97444  24043404.938
  24043412.000          41.100          26.100
 114158689.497 8  88954905.81546  21723661.883
  21723667.762          49.600          37.300
 130115607.210 6 101388677.19143  24760135.945
  24760142.477          39.200          18.300
 111232555.700 8  86674792.44547  21166809.148
  21166813.418          51.500          42.000
 110701585.275 8  86261013.24746  21065771.039
  21065775.508          50.700          41.700
 107108542.056 7  83461287.72946  20382043.133
  20382046.859          47.500          39.900
 123391757.271 7  96149512.56645  23480662.570
  23480666.637          44.700          30.400
 125356739.292 6  97680612.78744  23854536.117
  23854542.973          41.500          24.300
 129848409.302 7 101180567.77343  24709276.094
  24709281.945          44.000          21.800
 11 11 22  0  9  0.0000000  0 11G03G05G06G09G14G15G18G21G22G26G29
 126527395.192 6  98592863.85043  24077362.563
  24077370.559          41.600          21.800
 134670892.757 5 104938453.63442  25626998.508
  25627005.742          33.800          16.300
 126349792.046 6  98454447.98844  24043549.094
  24043557.254          38.500          24.900
 114078781.447 8  88892639.88146  21708455.547
  21708461.645          49.100          38.100
 130017549.614 6 101312268.83343  24741475.914
  24741482.883          38.900          18.600
 111296497.466 8  86724617.20247  21178976.922
  21178981.398          51.600          42.000
 110664806.410 8  86232354.42046  21058772.047
  21058775.945          51.300          41.900
 107096319.232 7  83451763.46446  20379717.289
  20379720.977          44.100          40.000
 123316399.561 7  96090792.37744  23466322.039
  23466325.883          44.900          28.600
 125471267.558 6  97769855.59643  23876329.992
  23876337.004          40.200          22.900
 129948247.428 7 101258363.66443  24728274.000
  24728280.969          44.100          20.900
 11 11 22  0  9 30.0000000  0 11G03G05G06G09G14G15G18G21G22G26G29
 126524164.411 6  98590346.38543  24076748.008
  24076754.793          40.100          18.600
 134754339.565 5 105003477.10142  25642877.234
  25642885.324          35.700          17.800
 126351049.528 6  98455427.89444  24043789.164
  24043796.152          41.400          27.600
 113999323.579 8  88830724.73446  21693335.305
  21693341.516          49.500          38.600
 129919633.548 6 101235970.73443  24722843.203
  24722849.289          39.200          19.600
 111360742.900 8  86774678.60146  21191202.383
  21191206.414          51.500          41.300
 110628198.587 8  86203828.86747  21051806.164
  21051810.285          50.800          42.000
 107084626.351 7  83442652.14046  20377492.688
  20377495.598          46.900          40.100
 123241093.790 7  96032112.65144  23451991.797
  23451995.230          43.400          28.900
 125585873.359 6  97859158.77743  23898138.922
  23898145.449          39.000          22.900
 130048006.164 7 101336097.69243  24747257.508
  24747264.848          42.300          19.600
 11 11 22  0 10  0.0000000  0 11G03G05G06G09G14G15G18G21G22G26G29
 126521479.018 6  98588253.95743  24076236.672
  24076243.902          40.800          19.300
 134837817.031 5 105068524.44742  25658763.313
  25658770.219          34.100          16.300
 126352798.785 6  98456790.98944  24044122.555
  24044128.477          41.700          26.200
 113920318.793 8  88769162.61746  21678301.242
  21678307.500          51.300          39.700
 129821859.989 6 101159783.70642  24704237.273
  24704243.352          39.400          17.400
 111425289.902 8  86824974.99146  21203485.328
  21203489.809          51.400          41.900
 110591762.201 8  86175436.91946  21044872.352
  21044875.930          50.200          41.600
 107073464.726 7  83433954.78246  20375368.016
  20375371.496          47.300          39.900
 123165840.517 7  95973473.80144  23437671.188
  23437675.074          46.600          28.400
 125700554.021 6  97948520.30243  23919961.695
  23919969.004          40.000          23.400
 130147682.823 6 101413767.83743  24766225.000
  24766233.496          39.500          20.400
 11 11 22  0 10 30.0000000  0 11G03G05G06G09G14G15G18G21G22G26G29
 126519338.712 7  98586586.21343  24075828.789
  24075837.434          42.300          19.300
 134921324.623 5 105133595.22942  25674652.094
  25674662.277          31.000          16.300
 126355039.312 7  98458536.89644  24044548.820
  24044555.691          42.000          27.900
 113841770.209 8  88707955.99646  21663354.180
  21663359.488          51.000          38.800
 129724230.400 6 101083708.76242  24685658.750
  24685665.082          40.300          17.800
 111490136.231 8  86875504.59447  21215825.125
  21215830.328          51.000          42.100
 110555498.127 8  86147179.22146  21037971.438
  21037975.504          50.100          41.900
 107062835.350 7  83425672.17546  20373345.531
  20373349.070          47.200          40.200
 123090640.022 7  95914876.09044  23423361.789
  23423364.410          46.600          28.900
 125815307.098 6  98037938.29944  23941798.578
  23941804.949          41.400          24.200
 130247274.643 6 101491371.83943  24785177.242
  24785186.469          40.900          22.500
 11 11 22  0 11  0.0000000  0 11G03G05G06G09G14G15G18G21G22G26G29
 126517742.906 7  98585342.88643  24075525.555
  24075532.578          43.000          18.600
 135004863.287 5 105198690.23542  25690551.914
  25690558.961          32.000          14.800
 126357770.582 6  98460665.15444  24045068.594
  24045075.961          41.500          28.100
 113763681.586 8  88647107.77146  21648494.078
  21648499.441          50.300          38.100
 129626746.563 6 101007747.46143  24667108.563
  24667114.871          39.600          18.600
 111555279.947 8  86926265.93946  21228221.102
  21228226.418          51.300          41.600
 110519407.398 8  86119056.60546  21031103.602
  21031107.527          50.200          41.600
 107052739.861 7  83417805.57446  20371424.203
  20371427.719          45.800          39.900
 123015493.063 7  95856320.08044  23409061.359
  23409065.047          47.000          29.400
 125930130.687 6  98127411.23944  23963648.500
  23963655.066          41.800          26.000
 130346779.313 6 101568907.89643  24804112.352
  24804120.297          41.200          20.400
 11 11 22  0 11 30.0000000  0 11G03G05G06G09G14G15G18G21G22G26G29
 126516690.739 7  98584523.06643  24075324.367
  24075332.813          42.700          19.300
 135088432.372 5 105263808.91642  25706454.781
  25706462.043          32.800          14.800
 126360991.329 6  98463174.88544  24045681.047
  24045687.914          39.400          26.500
 113686055.464 8  88586619.93046  21633722.430
  21633726.676          50.200          37.600
 129529409.132 6 100931900.29342  24648584.742
  24648591.219          37.600          17.800
 111620718.281 8  86977256.83347  21240673.875
  21240678.777          50.500          42.100
 110483490.047 8  86091069.09847  21024268.266
  21024272.750          50.300          42.100
 107043178.691 7  83410355.31846  20369604.656
  20369608.492          44.900          40.100
 122940399.510 7  95797805.68545  23394771.867
  23394774.996          46.500          30.700
 126045021.944 7  98216936.87344  23985511.461
  23985517.984          42.600          26.000
 130446193.708 7 101646373.60743  24823031.078
  24823036.004          42.000          18.300
 11 11 22  0 12  0.0000000  0 11G03G05G06G09G14G15G18G21G22G26G29
 126516181.343 7  98584126.23043  24075227.211
  24075234.336          42.600          19.000
 135172031.287 5 105328950.92042  25722362.719
  25722370.422          32.900          14.800
 126364700.969 7  98466065.56244  24046386.766
  24046393.699          42.100          26.000
 113608894.976 8  88526494.91446  21619038.664
  21619043.520          51.100          37.500
 129432219.109 6 100856167.90443  24630090.617
  24630096.453          40.700          19.300
 111686449.134 8  87028475.69247  21253182.359
  21253186.609          50.700          42.300
 110447746.972 8  86063217.36947  21017466.867
  21017471.090          48.700          42.300
 107034153.324 7  83403322.57546  20367887.688
  20367890.691          45.400          40.400
 122865359.538 7  95739333.04844  23380492.367
  23380495.000          47.100          29.900
 126159978.340 6  98306513.31944  24007386.922
  24007393.043          41.400          25.500
 130545515.088 6 101723766.85243  24841931.453
  24841936.785          40.400          18.300
 11 11 22  0 12 30.0000000  0 11G03G05G06G09G14G15G18G21G22G26G29
 126516215.074 7  98584152.58343  24075234.219
  24075241.398          42.600          19.900
 135255660.944 4 105394116.83242  25738273.805
  25738285.910          28.300          14.800
 126368899.204 6  98469336.93144  24047185.617
  24047192.973          41.800          25.400
 113532203.736 8  88466735.55246  21604444.938
  21604450.684          50.600          38.900
 129335178.335 6 100780551.82843  24611624.289
  24611629.977          40.600          21.100
 111752470.899 8  87079921.23547  21265746.242
  21265750.242          51.700          42.400
 110412178.541 8  86035501.73247  21010698.680
  21010702.281          49.600          42.000
 107025665.092 7  83396708.37946  20366271.508
  20366275.492          44.200          40.600
 122790374.280 7  95680903.04945  23366222.242
  23366225.539          47.200          31.200
 126274998.235 6  98396139.21144  24029275.133
  24029281.598          40.600          26.000
 130644741.346 6 101801085.97143  24860813.789
  24860820.777          37.800          21.300
 11 11 22  0 13  0.0000000  0 10G03G06G09G14G15G18G21G22G26G29
 126516790.890 7  98584601.30343  24075344.148
  24075351.625          43.500          19.600
 126373585.193 7  98472988.36344  24048077.922
  24048083.723          43.900          24.400
 113455984.438 8  88407343.95646  21589941.227
  21589947.617          51.300          39.400
 129238288.241 6 100705053.15043  24593186.602
  24593193.035          40.100          19.900
 111818781.619 8  87131591.94446  21278364.234
  21278368.496          51.600          41.300
 110376785.809 8  86007923.01247  21003963.344
  21003967.262          50.200          42.800
 107017715.219 7  83390513.69846  20364759.195
  20364763.176          46.200          40.100
 122715443.989 7  95622515.86345  23351963.867
  23351967.074          47.100          32.000
 126390079.090 6  98485812.58143  24051173.672
  24051180.723          39.600          22.800
 130743870.135 6 101878329.11443  24879675.211
  24879685.734          40.300          21.700
 11 11 22  0 13 30.0000000  0 10G03G06G09G14G15G18G21G22G26G29
 126517907.665 7  98585471.62043  24075557.203
  24075564.184          42.600          20.400
 126378757.718 7  98477018.96144  24049061.945
  24049068.523          43.400          25.100
 113380239.836 8  88348322.25246  21575527.766
  21575533.523          51.500          40.300
 129141549.714 6 100629672.61443  24574778.016
  24574784.785          39.400          20.600
 111885378.536 8  87183485.67446  21291037.117
  21291041.348          51.200          41.900
 110341568.957 8  85980481.33947  20997262.055
  20997265.695          50.400          42.000
 107010304.151 7  83384738.85446  20363348.891
  20363352.652          46.600          40.400
 122640568.770 7  95564171.62445  23337715.758
  23337719.238          46.800          32.100
 126505218.256 6  98575531.42543  24073084.359
  24073090.469          41.300          23.500
 130842898.334 6 101955493.94843  24898522.203
  24898528.398          41.700          20.100
 11 11 22  0 14  0.0000000  0 10G03G06G09G14G15G18G21G22G26G29
 126519564.895 7  98586763.01743  24075871.867
  24075879.340          43.400          19.000
 126384416.125 7  98481428.10844  24050139.188
  24050145.371          45.200          27.100
 113304973.328 8  88289673.08346  21561204.898
  21561210.664          50.300          39.200
 129044964.010 6 100554411.10843  24556398.742
  24556404.176          39.200          19.900
 111952259.713 8  87235600.89746  21303763.609
  21303768.543          50.900          40.300
 110306528.818 8  85953177.35447  20990593.930
  20990598.016          50.500          42.000
 107003433.200 7  83379384.88146  20362041.289
  20362045.086          46.400          39.900
 122565749.086 7  95505870.65745  23323477.664
  23323481.125          45.900          32.000
 126620413.508 7  98665293.99043  24095004.945
  24095011.547          42.500          22.900
 130941823.340 6 102032578.35642  24917345.000
  24917351.742          39.200          17.400
 11 11 22  0 14 30.0000000  0 10G03G06G09G14G15G18G21G22G26G29
 126521761.631 6  98588474.81043  24076289.242
  24076297.375          41.800          20.600
 126390559.220 7  98486214.98044  24051307.617
  24051313.711          43.800          24.000
 113230187.599 8  88231398.55646  21546973.367
  21546978.684          50.300          38.700
 128948532.275 6 100479269.64443  24538047.398
  24538053.297          39.400          21.100
 112019422.700 8  87287935.69046  21316544.570
  21316549.770          50.600          41.800
 110271665.899 8  85926011.46747  20983959.617
  20983963.766          50.300          42.500
 106997102.916 7  83374452.20646  20360836.656
  20360840.340          45.600          40.400
 122490984.985 7  95447612.99645  23309251.148
  23309254.121          45.700          32.100
 126735662.079 6  98755098.05343  24116935.391
  24116942.676          41.900          22.300
 131040642.266 5 102109579.95042  24936150.344
  24936157.402          34.000          17.800
 11 11 22  0 15  0.0000000  0 10G03G06G09G14G15G18G21G22G26G29
 126524497.977 7  98590607.06243  24076810.859
  24076817.559          44.100          21.700
 126397186.815 7  98491379.35944  24052569.180
  24052574.324          44.900          26.300
 113155886.009 8  88173501.28246  21532833.703
  21532838.410          49.500          37.200
 128852256.161 6 100404249.40043  24519727.016
  24519733.129          40.300          22.800
 112086865.903 8  87340488.84347  21329378.953
  21329383.820          51.600          42.000
 110236981.230 8  85898984.48546  20977359.234
  20977363.328          50.800          41.700
 106991315.158 7  83369942.27646  20359735.430
  20359739.070          43.900          40.000
 122416277.734 7  95389399.63245  23295034.398
  23295037.848          44.700          31.200
 126850962.498 6  98844942.51343  24138877.680
  24138883.602          41.600          22.900
 131139353.490 6 102186497.74143  24954934.172
  24954941.598          39.200          20.100
 11 11 22  0 15 30.0000000  0 10G03G06G09G14G15G18G21G22G26G29
 126527772.754 7  98593158.90143  24077433.555
  24077441.363          44.500          20.400
 126404297.817 7  98496920.46044  24053921.750
  24053929.215          43.900          25.100
 113082071.553 8  88115983.56746  21518787.164
  21518791.570          50.600          37.900
 128756136.705 6 100329351.24243  24501435.164
  24501441.906          38.400          21.800
 112154586.840 8  87393258.39846  21342265.938
  21342270.246          51.700          41.700
 110202475.350 8  85872096.81446  20970792.852
  20970797.078          50.200          41.800
 106986070.486 7  83365855.52346  20358738.039
  20358740.910          44.100          40.800
 122341627.292 7  95331230.56645  23280828.625
  23280831.316          46.200          30.700
 126966312.187 6  98934825.40643  24160827.773
  24160833.195          41.500          22.000
 131237954.074 6 102263329.34843  24973698.195
  24973704.926          41.800          23.400
 11 11 22  0 16  0.0000000  0 10G03G06G09G14G15G18G21G22G26G29
 126531584.901 7  98596129.42843  24078159.305
  24078165.961          43.800          19.900
 126411891.025 7  98502837.25844  24055366.773
  24055373.762          43.800          26.000
 113008747.116 8  88058847.66646  21504834.477
  21504839.281          51.600          38.600
 128660175.039 6 100254576.04143  24483174.789
  24483181.355          38.700          21.500
 112222583.686 8  87446242.97146  21355205.094
  21355209.641          51.500          41.700
 110168148.993 8  85845349.03246  20964261.289
  20964264.828          49.900          41.900
 106981369.939 8  83362192.77146  20357843.164
  20357846.633          48.000          40.400
 122267034.083 7  95273106.07045  23266634.063
  23266637.266          46.000          31.900
 127081708.752 6  99024744.76843  24182786.477
  24182793.344          41.200          22.800
 131336441.059 5 102340072.39343  24992439.016
  24992445.844          35.800          19.900
 11 11 22  0 16 30.0000000  0 10G03G06G09G14G15G18G21G22G26G29
 126535933.282 7  98599517.75543  24078987.031
  24078993.645          42.300          19.300
 126419965.286 7  98509128.96344  24056903.031
  24056909.633          44.800          25.900
 112935915.361 8  88002095.71246  21490975.211
  21490980.477          51.100          39.200
 128564371.962 6 100179924.45243  24464944.219
  24464950.090          40.000          22.500
 112290853.745 8  87499440.42846  21368196.031
  21368200.891          51.100          41.300
 110134002.363 8  85818741.29946  20957762.914
  20957766.734          50.300          41.600
 106977213.884 7  83358954.30346  20357052.297
  20357055.598          45.100          40.500
 122192498.036 7  95215026.13145  23252449.984
  23252453.098          45.700          31.400
 127197149.520 7  99114698.60943  24204755.383
  24204760.656          42.100          22.300
 131434812.044 6 102416724.96843  25011159.203
  25011166.137          40.000          19.900
 11 11 22  0 17  0.0000000  0 10G03G06G09G14G15G18G21G22G26G29
 126540817.690 7  98603323.87243  24079916.469
  24079924.004          42.500          22.000
 126428520.488 7  98515795.38844  24058530.922
  24058537.297          45.000          26.000
 112863580.139 8  87945730.64846  21477210.203
  21477215.988          51.000          40.000
 128468729.367 6 100105397.88243  24446743.695
  24446749.473          40.400          22.000
 112359395.710 8  87552849.75446  21381239.070
  21381244.023          50.400          41.000
 110100037.163 8  85792274.93147  20951299.961
  20951303.504          50.500          42.300
 106973604.163 7  83356141.54946  20356365.383
  20356368.543          46.400          40.800
 122118020.539 7  95156991.81745  23238277.547
  23238280.668          44.500          30.200
 127312633.164 6  99204685.83443  24226730.367
  24226736.387          41.600          22.900
 131533065.006 6 102493285.63943  25029855.430
  25029863.949          38.500          20.600
 11 11 22  0 17 30.0000000  0 10G03G06G09G14G15G18G21G22G26G29
 126546236.995 7  98607546.70943  24080947.492
  24080955.125          42.700          20.600
 126437554.893 7  98522835.23544  24060249.953
  24060256.941          43.400          26.800
 112791743.446 8  87889754.06546  21463539.836
  21463545.797          51.600          39.500
 128373247.986 6 100030996.92643  24428573.727
  24428580.082          40.300          22.300
 112428206.710 8  87606468.71946  21394333.516
  21394338.359          50.000          40.700
 110066252.813 8  85765949.48647  20944870.945
  20944874.773          49.300          42.200
 106970541.049 7  83353754.71046  20355781.953
  20355785.578          44.700          40.200
 122043601.120 7  95099002.72845  23224116.359
  23224119.461          46.800          31.300
 127428156.624 7  99294704.08844  24248714.227
  24248719.266          42.100          25.800
 131631196.402 6 102569751.66943  25048529.867
  25048537.184          37.600          19.900
 11 11 22  0 18  0.0000000  0 10G03G06G09G14G15G18G21G22G26G29
 126552190.472 7  98612185.85343  24082080.281
  24082087.703          43.300          21.800
 126447067.956 7  98530248.03544  24062061.359
  24062067.211          44.500          28.000
 112720408.490 8  87834168.46946  21449964.891
  21449971.164          50.600          39.400
 128277929.230 6  99956722.74043  24410434.914
  24410441.727          38.400          22.200
 112497285.004 8  87660295.96246  21407479.313
  21407483.316          51.200          41.600
 110032650.975 8  85739766.26147  20938476.563
  20938480.117          49.800          42.600
 106968025.665 7  83351794.69346  20355303.750
  20355306.809          46.600          40.900
 121969240.712 7  95041059.64545  23209965.133
  23209968.551          46.700          31.500
 127543718.310 7  99384752.11143  24270704.414
  24270710.367          42.100          23.200
 131729204.353 6 102646121.50343  25067179.641
  25067186.848          39.400          21.800
 11 11 22  0 18 30.0000000  0 10G03G06G09G14G15G18G21G22G26G29
 126558676.608 7  98617240.03943  24083313.813
  24083321.949          42.100          20.100
 126457058.182 7  98538032.67544  24063961.172
  24063968.039          44.500          27.900
 112649578.105 8  87778976.04046  21436485.992
  21436491.805          51.600          38.700
 128182774.106 6  99882576.05243  24392327.828
  24392333.453          38.800          20.600
 112566628.046 8  87714329.52246  21420674.625
  21420679.668          51.500          41.600
 109999231.796 8  85713725.37846  20932117.328
  20932120.578          50.300          41.800
 106966058.467 7  83350261.82046  20354929.273
  20354932.461          44.200          40.800
 121894939.434 7  94983162.63045  23195826.680
  23195829.184          46.200          31.400
 127659315.354 6  99474827.73543  24292701.906
  24292707.535          41.800          22.900
 131827086.092 6 102722392.88043  25085806.305
  25085814.012          37.700          21.700
 11 11 22  0 19  0.0000000  0 10G03G06G09G14G15G18G21G22G26G29
 126565695.581 6  98622709.43543  24084649.609
  24084657.086          40.300          19.900
 126467525.764 7  98546189.28244  24065954.234
  24065960.320          43.200          26.800
 112579256.148 8  87724179.75946  21423105.227
  21423109.730          50.300          38.500
 128087784.725 6  99808558.44743  24374252.086
  24374257.984          39.000          21.800
 112636234.916 8  87768568.63547  21433920.117
  21433925.637          50.900          42.100
 109965997.138 8  85687828.26446  20925792.703
  20925796.543          49.700          41.800
 106964641.344 7  83349157.58046  20354659.781
  20354662.832          46.700          39.700
 121820698.657 7  94925312.74045  23181698.797
  23181701.211          45.600          31.200
 127774946.855 6  99564930.24243  24314706.266
  24314711.199          41.600          22.000
 131924840.263 5 102798564.86443  25104407.688
  25104416.875          34.400          19.000
 11 11 22  0 19 30.0000000  0 10G03G06G09G14G15G18G21G22G26G29
 126573244.999 7  98628592.17943  24086086.984
  24086093.563          43.400          19.000
 126478467.974 6  98554715.71744  24068035.430
  24068042.277          41.900          27.400
 112509444.216 8  87669780.90046  21409820.078
  21409824.457          52.300          39.200
 127992960.783 6  99734669.80243  24356207.836
  24356213.250          39.400          21.700
 112706102.011 8  87823010.50846  21447215.539
  21447219.605          50.000          41.200
 109932945.801 8  85662074.00746  20919503.422
  20919507.035          50.500          41.300
 106963773.789 7  83348481.56546  20354494.594
  20354497.980          47.000          40.500
 121746517.751 8  94867509.51145  23167582.641
  23167585.660          48.700          33.100
 127890608.869 6  99655056.51443  24336715.281
  24336721.352          41.300          22.600
 132022462.594 5 102874634.13742  25122983.070
  25122992.844          31.200          16.900
 11 11 22  0 20  0.0000000  0 10G03G06G09G14G15G18G21G22G26G29
 126581324.621 6  98634888.06143  24087623.570
  24087630.617          41.300          19.000
 126489884.738 7  98563611.95144  24070207.688
  24070215.000          42.100          27.500
 112440146.050 8  87615782.34546  21396633.352
  21396637.730          51.200          39.300
 127898304.396 6  99660911.71043  24338194.883
  24338200.176          37.400          22.200
 112776227.811 8  87877654.00346  21460560.336
  21460564.859          51.100          40.900
 109900079.607 8  85636464.00746  20913249.023
  20913253.027          50.800          41.600
 106963457.252 7  83348234.92746  20354434.281
  20354438.027          47.100          40.100
 121672397.496 8  94809753.52845  23153478.266
  23153480.973          48.900          33.100
 128006300.049 7  99745205.46843  24358731.125
  24358736.750          42.000          22.900
 132119951.513 6 102950599.47743  25141536.914
  25141543.984          38.800          21.500
 11 11 22  0 20 30.0000000  0 10G03G06G09G14G15G18G21G22G26G29
 126589933.831 6  98641596.56143  24089261.031
  24089269.293          41.400          19.000
 126501775.105 6  98572877.20844  24072470.664
  24072477.301          41.400          26.600
 112371364.399 8  87562186.28846  21383544.633
  21383549.387          50.800          39.200
 127803816.871 6  99587285.22143  24320214.328
  24320220.059          38.500          22.500
 112846610.569 8  87932497.71746  21473953.273
  21473958.109          50.300          40.900
 109867399.746 8  85610999.20546  20907030.430
  20907033.832          49.700          41.600
 106963692.819 7  83348418.49346  20354478.891
  20354482.855          46.600          40.300
 121598338.726 8  94752045.46945  23139385.125
  23139387.500          48.500          33.900
 128122018.560 6  99835375.75643  24380751.039
  24380756.594          41.400          20.400
 132217304.737 6 103026459.10343  25160062.633
  25160070.395          36.200          22.500
 11 11 22  0 21  0.0000000  0 10G03G06G09G14G15G18G21G22G26G29
 126599070.704 6  98648716.29443  24091000.406
  24091008.020          41.400          19.600
 126514136.892 6  98582509.82444  24074822.609
  24074830.559          38.900          26.600
 112303101.280 8  87508994.33246  21370553.570
  21370559.621          50.300          39.700
 127709498.268 6  99513790.31443  24302266.102
  24302272.098          37.700          21.700
 112917247.268 8  87987539.29146  21487395.078
  21487399.918          50.700          41.000
 109834905.476 8  85585679.01746  20900846.930
  20900849.957          50.800          41.100
 106964480.271 7  83349032.09746  20354628.789
  20354632.551          45.800          40.900
 121524340.841 8  94694384.83345  23125303.570
  23125306.133          48.200          33.500
 128237761.327 6  99925564.94843  24402777.164
  24402782.102          41.300          21.100
 132314518.908 6 103102210.32743  25178561.688
  25178569.605          38.600          22.600
 11 11 22  0 21 30.0000000  0 10G03G06G09G14G15G18G21G22G26G29
 126608734.613 7  98656246.66543  24092839.492
  24092846.973          42.000          19.000
 126526969.921 6  98592509.64244  24077265.289
  24077272.441          39.300          26.500
 112235360.386 8  87456209.29746  21357662.891
  21357669.289          49.400          39.800
 127615350.703 6  99440428.68343  24284350.281
  24284356.621          38.300          23.400
 112988136.518 8  88042777.68646  21500884.906
  21500888.680          50.600          40.400
 109802598.662 8  85560504.90546  20894698.883
  20894702.574          50.000          41.200
 106965821.242 7  83350077.01446  20354884.078
  20354887.844          46.000          40.500
 121450405.531 8  94636773.00145  23111234.430
  23111236.867          48.100          33.800
 128353526.971 6 100015771.95243  24424805.250
  24424810.887          38.100          19.000
 132411592.333 6 103177851.91543  25197033.805
  25197042.828          38.400          22.600
 11 11 22  0 22  0.0000000  0 10G03G06G09G14G15G18G21G22G26G29
 126618924.931 6  98664187.19343  24094778.328
  24094785.574          41.000          20.400
 126540273.349 6  98602875.96844  24079797.203
  24079803.457          38.600          25.700
 112168144.609 8  87403833.42746  21344872.242
  21344878.223          50.200          40.300
 127521375.575 6  99367201.43143  24266466.508
  24266473.395          37.100          22.500
 113059276.636 8  88098211.56546  21514422.117
  21514426.730          51.100          40.700
 109770480.270 8  85535477.61646  20888587.344
  20888590.625          49.700          40.700
 106967716.526 7  83351553.86846  20355245.141
  20355248.219          46.700          40.900
 121376533.374 8  94579210.33445  23097176.563
  23097179.070          48.100          33.300
 128469313.825 6 100105995.43043  24446840.148
  24446844.277          37.500          19.000
 132508523.004 6 103253382.25743  25215479.453
  25215487.328          37.000          22.000
 11 11 22  0 22 30.0000000  0 10G03G06G09G14G15G18G21G22G26G29
 126629639.787 7  98672536.51143  24096817.484
  24096824.539          43.800          19.900
 126554045.206 6  98613607.33544  24082417.211
  24082423.824          38.600          25.200
 112101456.016 8  87351868.34646  21332181.992
  21332187.473          50.100          39.900
 127427573.055 6  99294108.59743  24248617.977
  24248623.441          37.600          22.500
 113130664.591 8  88153838.54546  21528007.430
  21528012.262          50.600          41.300
 109738550.445 8  85510597.25746  20882510.523
  20882514.660          49.100          41.300
 106970166.025 7  83353462.57246  20355710.883
  20355714.164          47.300          41.100
 121302723.996 8  94521696.58245  23083131.258
  23083133.754          48.300          34.100
 128585118.740 6 100196233.02143  24468876.047
  24468881.387          36.900          18.300
 132605307.456 6 103328798.63143  25233897.180
  25233904.430          38.300          20.900
 11 11 22  0 23  0.0000000  0 10G03G06G09G14G15G18G21G22G26G29
 126640878.699 7  98681294.21543  24098956.539
  24098964.227          44.600          21.700
 126568284.754 6  98624703.14044  24085126.883
  24085134.059          38.600          24.700
 112035298.137 8  87300316.80446  21319592.992
  21319597.734          50.900          40.200
 127333945.073 5  99221151.81543  24230800.469
  24230806.613          35.100          22.800
 113202299.228 8  88209657.73146  21541638.313
  21541644.023          50.300          40.600
 109706810.413 8  85485864.79146  20876470.836
  20876474.492          49.100          41.100
 106973171.162 7  83355804.25746  20356283.219
  20356285.754          47.900          40.600
 121228978.668 8  94464232.75745  23069097.813
  23069100.535          48.500          33.800
 128700940.338 6 100286483.62443  24490915.695
  24490921.547          36.000          18.300
 132701944.028 6 103404099.84643  25252286.430
  25252293.285          38.100          22.300
 11 11 22  0 23 30.0000000  0 10G03G06G09G14G15G18G21G22G26G29
 126652640.088 7  98690458.97943  24101194.492
  24101201.504          43.300          21.300
 126582990.642 6  98636162.30743  24087925.211
  24087932.035          37.700          23.500
 111969673.318 8  87249180.61446  21307104.977
  21307108.688          50.900          39.800
 127240492.580 5  99148331.76943  24213016.883
  24213023.254          35.000          22.500
 113274178.093 8  88265667.23246  21555316.320
  21555321.293          50.200          39.500
 109675260.377 8  85461280.36346  20870467.250
  20870470.926          50.100          41.400
 106976732.311 7  83358579.17846  20356960.773
  20356963.438          47.300          40.500
 121155297.346 7  94406818.79445  23055076.609
  23055080.211          47.800          35.100
 128816776.141 6 100376745.29442  24512958.984
  24512963.668          37.200          17.800
 132798429.942 6 103479283.59944  25270646.328
  25270655.332          39.700          24.900
 11 11 22  0 24  0.0000000  0 10G03G06G09G14G15G18G21G22G26G29
 126664923.410 7  98700030.42043  24103532.250
  24103538.156          43.200          22.000
 126598162.185 6  98647984.33943  24090811.727
  24090819.539          37.800          22.800
 111904584.832 8  87198462.35546  21294718.836
  21294723.566          49.700          39.600
 127147216.772 6  99075649.40343  24195266.078
  24195272.543          36.200          21.800
 113346299.098 8  88321865.42946  21569040.969
  21569044.953          51.200          40.300
 109643901.874 8  85436845.19446  20864499.633
  20864503.293          49.300          40.900
 106980850.426 8  83361788.10746  20357744.414
  20357746.793          49.300          40.600
 121081681.093 8  94349455.56445  23041068.188
  23041071.176          48.000          34.800
 128932624.542 6 100467016.80442  24535003.641
  24535009.359          37.000          17.800
 132894763.156 6 103554348.45843  25288978.859
  25288986.754          38.300          20.600
 11 11 22  0 24 30.0000000  0 10G03G06G09G14G15G18G21G22G26G29
 126677726.203 6  98710006.68643  24105967.977
  24105975.574          41.800          22.000
 126613796.875 6  98660167.23243  24093788.016
  24093794.219          37.800          22.200
 111840034.350 8  87148163.32846  21282435.016
  21282439.910          48.800          39.200
 127054117.865 6  99003104.84443  24177551.391
  24177556.199          38.200          22.000
 113418659.267 8  88378249.98146  21582810.586
  21582814.832          51.100          40.100
 109612734.457 8  85412558.92146  20858568.750
  20858572.313          49.100          41.300
 106985525.011 7  83365430.65746  20358633.422
  20358636.988          47.600          40.400
 121008129.227 7  94292142.49645  23027071.328
  23027074.609          47.500          34.600
 129048482.363 6 100557295.57243  24557051.125
  24557057.414          36.100          18.300
 132990940.347 6 103629291.63544  25307281.188
  25307288.258          40.900          24.300
 11 11 22  0 25  0.0000000  0 10G03G06G09G14G15G18G21G22G26G29
 126691047.982 6  98720387.33943  24108503.023
  24108510.574          41.800          21.500
 126629894.035 6  98672710.53243  24096850.625
  24096857.613          39.100          22.900
 111776024.985 8  87098285.97146  21270253.742
  21270259.813          48.500          39.800
 126961197.447 6  98930699.37243  24159868.727
  24159874.492          38.300          22.300
 113491257.215 8  88434819.85146  21596625.109
  21596629.684          51.100          40.400
 109581759.526 8  85388422.61746  20852674.383
  20852677.965          49.300          40.900
 106990756.878 7  83369507.44046  20359629.219
  20359632.617          44.300          40.900
 120934642.977 7  94234880.56245  23013087.117
  23013090.301          47.800          34.100
 129164348.133 5 100647580.57442  24579099.219
  24579104.984          35.000          17.400
 133086959.565 6 103704111.78044  25325552.680
  25325559.859          39.500          24.300
 11 11 22  0 25 30.0000000  0 10G03G06G09G14G15G18G21G22G26G29
 126704887.573 6  98731171.51943  24111136.648
  24111143.633          41.400          22.500
 126646452.646 6  98685613.37843  24100001.016
  24100007.941          38.600          22.900
 111712559.541 8  87048832.44546  21258177.477
  21258182.926          48.900          40.100
 126868456.905 6  98858434.10743  24142220.328
  24142226.313          38.400          22.500
 113564091.210 8  88491573.62646  21610484.836
  21610489.676          50.300          39.800
 109550977.718 8  85364436.82746  20846816.516
  20846820.816          48.800          41.100
 106996547.329 8  83374019.49246  20360731.172
  20360734.605          49.100          40.400
 120861223.119 8  94177670.34245  22999116.070
  22999119.203          48.000          35.000
 129280220.125 5 100737870.33142  24601149.852
  24601155.254          35.600          16.300
 133182818.545 6 103778807.12243  25343793.352
  25343801.434          37.400          22.300
 11 11 22  0 26  0.0000000  0 10G03G06G09G14G15G18G21G22G26G29
 126719244.246 6  98742358.56143  24113869.125
  24113875.695          41.200          21.800
 126663471.839 6  98698875.17343  24103239.695
  24103247.164          39.200          22.900
 111649641.374 8  86999805.35946  21246204.211
  21246210.133          49.900          41.300
 126775897.935 6  98786310.30643  24124607.609
  24124613.137          39.500          22.500
 113637159.724 8  88548510.13546  21624389.453
  21624394.047          48.200          39.400
 109520390.669 7  85340602.78746  20840996.219
  20840999.934          47.800          41.300
 107002897.428 7  83378967.62346  20361939.711
  20361942.801          44.900          41.000
 120787870.527 8  94120512.55345  22985157.148
  22985159.883          49.600          35.400
 129396096.735 5 100828163.82942  24623200.008
  24623206.613          34.500          14.800
 133278515.727 6 103853376.27143  25362004.117
  25362012.195          36.400          22.200
 11 11 22  0 26 30.0000000  0 10G03G06G09G14G15G18G21G22G26G29
 126734115.631 6  98753946.71643  24116697.922
  24116706.402          40.400          23.400
 126680949.246 6  98712493.95543  24106564.148
  24106573.336          37.700          22.500
 111587271.907 8  86951205.82746  21234335.711
  21234341.309          50.700          41.600
 126683520.467 6  98714327.94543  24107028.727
  24107033.871          39.000          22.800
 113710459.306 8  88605626.67446  21638338.227
  21638342.879          50.200          40.800
 109489997.950 8  85316920.16846  20835212.750
  20835216.340          48.000          40.900
 107009806.277 8  83384351.15946  20363254.484
  20363257.398          48.800          41.100
 120714584.826 8  94063406.88545  22971211.711
  22971214.676          48.400          35.700
 129511974.833 5                  24645251.555
                        32.400
 133374047.680 6 103927816.66343  25380182.969
  25380191.836          37.900          22.800
 11 11 22  0 27  0.0000000  0 10G03G06G09G14G15G18G21G22G26G29
 126749500.871 6  98765935.22043  24119626.055
  24119634.113          41.400          22.600
 126698884.250 6  98726469.29743  24109977.672
  24109985.242          37.100          21.700
 111525454.239 8  86903036.26046  21222572.313
  21222577.770          50.200          40.600
 126591326.426 6  98642488.50543  24089484.875
  24089489.887          39.200          22.800
 113783988.761 8  88662922.37446  21652330.086
  21652334.563          50.200          40.200
 109459801.095 8  85293390.17046  20829466.141
  20829470.176          48.300          40.800
 107017275.169 8  83390171.07446  20364675.586
  20364678.746          48.400          40.100
 120641367.008 7  94006354.11245  22957278.930
  22957281.637          47.500          34.600
 129627852.978 5                  24667302.492
                        35.600
 133469412.602 6 104002126.96044  25398330.016
  25398339.652          39.900          25.200
 11 11 22  0 27 30.0000000  0 10G03G06G09G14G15G18G21G22G26G29
