     2.11           OBSERVATION DATA    G (GPS)             RINEX VERSION / TYPE
teqc  2019Feb25     root                20210227 05:23:57UTCPGM / RUN BY / DATE
Linux 2.4.21-27.ELsmp|Opteron|gcc|Linux 64|=+               COMMENT
     2.11           OBSERVATION DATA    M (MIXED)           COMMENT
teqc  2010Oct21     CORS/NGS/NOAA       20111123 01:47:42UTCCOMMENT
Solaris x86 5.10|AMD64|cc SC5.8 -xarch=amd64|=+|=+          COMMENT
teqc  2010Oct21     CORS-ADM Account    20111123 01:37:39UTCCOMMENT
teqc  2010Oct21     CORS/NGS/NOAA       20111123 01:35:34UTCCOMMENT
+39.015299006 (latitude)                                    COMMENT
-079.45694724 (longitude)                                   COMMENT
+969.234      (elevation)                                   COMMENT
+.000000      (antenna height)                              COMMENT
BIT 2 OF LLI FLAGS DATA COLLECTED UNDER A/S CONDITION       COMMENT
 SNR is mapped to RINEX snr flag value [0-9]                COMMENT
  L1 & L2: min(max(int(snr_dBHz/6), 0), 9)                  COMMENT
Forced Modulo Decimation to 30 seconds                      COMMENT
WVCV                                                        MARKER NAME
28                                                          MARKER NUMBER
Peter J Dailey      Rahall Appalachian Transportation InstitOBSERVER / AGENCY
4922K62079          TRIMBLE NETR5       4.42                REC # / TYPE / VERS
1440921177          TRM57971.00     NONE                    ANT # / TYPE
   908103.5529 -4879224.3126  3994246.9673                  APPROX POSITION XYZ
        0.0000        0.0000        0.0000                  ANTENNA: DELTA H/E/N
     1     1                                                WAVELENGTH FACT L1/2
     8    L1    L2    C1    C2    P1    P2    S1    S2      # / TYPES OF OBSERV
    30.0000                                                 INTERVAL
teqc.w windowed: start @ 2011 Nov 22 00:00:00.000           COMMENT
teqc.w windowed:  end  @ 2011 Nov 23 00:00:00.000           COMMENT
teqc.w edited: all GLONASS satellites excluded              COMMENT
  2011    11    22     0     0    0.0000000     GPS         TIME OF FIRST OBS
                                                            END OF HEADER
 11 11 22  0  0  0.0000000  0 11G03G05G06G09G14G15G18G21G22G26G29
 127194960.576 6  99113040.28143  24204392.867
  24204401.680          39.000          19.600
 132427679.154 6 103190521.81744  25200127.297
  25200134.691          41.400          26.900
 126991442.916 6  98954364.93144  24165631.320
  24165639.836          38.800          24.400
 115260516.115 8  89813522.80946  21933348.883
  21933354.883          48.300          37.000
 132422433.206 5                  25199153.445
                        33.700
 109867756.812 8  85611383.42646  20907116.320
  20907121.121          50.200          41.800
 111623587.286 8  86979533.76646  21241242.898
  21241247.383          51.900          39.800
 107576526.142 8  83825884.71146  20471079.383
  20471083.629          48.000          40.200
 125335007.673 7  97663703.69844  23850453.156
  23850457.383          44.300          29.800
 122846962.208 7  95725009.85744  23376966.641
  23376972.617          43.500          26.300
 128470533.210 6 100107091.19344  24447119.867
  24447127.891          41.700          26.200
 11 11 22  0  0 30.0000000  0 11G03G05G06G09G14G15G18G21G22G26G29
 127183680.116 6  99104250.40743  24202246.836
  24202254.898          39.300          21.300
 132510693.003 6 103255207.89543  25215924.375
  25215931.781          38.100          22.600
 126985307.948 6  98949584.51944  24164463.914
  24164471.891          40.900          25.400
 115172760.019 8  89745141.50346  21916648.922
  21916655.266          48.800          36.200
 132322779.734 4                  25180188.445
                        29.900
 109924214.021 8  85655376.06947  20917859.914
  20917864.484          49.800          42.100
 111581329.891 8  86946605.94846  21233201.625
  21233205.906          51.200          40.200
 107554808.317 7  83808961.74546  20466946.711
  20466950.176          46.600          39.900
 125257419.588 7  97603245.58644  23835688.617
  23835693.293          44.900          29.600
 122958796.544 7  95812153.46944  23398248.008
  23398254.039          43.800          26.900
 128570348.463 7 100184869.27744  24466114.430
  24466121.805          42.400          26.200
 11 11 22  0  1  0.0000000  0 11G03G05G06G09G14G15G18G21G22G26G29
 127172948.266 6  99095887.98243  24200204.039
  24200213.520          38.200          21.700
 132593749.229 6 103319926.99242  25231729.664
  25231736.602          36.000          17.800
 126979670.297 6  98945191.60044  24163391.672
  24163398.965          41.100          24.800
 115085401.403 8  89677069.91446  21900025.156
  21900031.301          48.600          36.600
 132223239.904 5                  25161247.000
                        30.300
 109981010.942 8  85699633.41947  20928667.750
  20928672.570          49.500          42.000
 111539230.921 8  86913801.59246  21225190.516
  21225194.578          50.900          40.100
 107533603.227 7  83792438.31646  20462911.523
  20462915.227          46.200          40.500
 125179869.884 7  97542817.34344  23820931.688
  23820934.539          45.300          28.200
 123070753.368 7  95899392.54344  23419552.656
  23419558.496          45.400          26.700
 128670123.404 6 100262615.97444  24485100.336
  24485109.047          41.800          26.400
 11 11 22  0  1 30.0000000  0 11G03G05G06G09G14G15G18G21G22G26G29
 127162765.088 6  99087953.11343  24198266.344
  24198274.754          37.900          18.600
 132676848.210 5 103384679.29242  25247541.766
  25247550.523          34.100          13.900
 126974529.677 6  98941185.98044  24162412.586
  24162420.746          40.200          24.400
 114998443.528 8  89609310.59346  21883477.906
  21883483.996          49.400          37.300
 132123814.948 5                  25142327.461
                        31.300
 110038145.433 8  85744153.81447  20939540.172
  20939544.883          50.100          42.000
 111497291.209 8  86881121.33546  21217209.555
  21217213.895          51.000          40.200
 107512912.499 7  83776315.68946  20458973.820
  20458978.020          47.900          40.500
 125102358.803 7  97482419.15444  23806181.531
  23806184.945          46.000          29.700
 123182830.198 7  95986725.12344  23440879.984
  23440886.637          44.000          27.000
 128769855.556 7 100340329.32244  24504078.438
  24504087.270          42.000          26.800
 11 11 22  0  2  0.0000000  0 11G03G05G06G09G14G15G18G21G22G26G29
 127153130.198 6  99080445.49243  24196432.641
  24196441.414          39.000          19.900
 132759989.598 6 103449464.98242  25263362.813
  25263371.051          39.400          17.800
 126969885.644 6  98937567.28544  24161529.070
  24161536.980          41.200          26.000
 114911889.827 8  89541866.21146  21867007.227
  21867013.133          48.900          37.900
 132024505.895 5                  25123429.188
                        30.100
 110095615.556 8  85788935.73546  20950476.328
  20950481.195          49.700          41.800
 111455511.359 8  86848565.63646  21209259.008
  21209263.273          51.000          40.600
 107492737.426 8  83760594.86546  20455134.875
  20455138.961          48.100          40.800
 125024886.639 7  97422051.31944  23791439.188
  23791441.684          45.200          28.600
 123295024.495 7  96074149.26044  23462230.023
  23462236.223          43.200          26.400
 128869542.161 6 100418007.16744  24523048.445
  24523057.039          41.700          27.200
 11 11 22  0  2 30.0000000  0 11G03G05G06G09G14G15G18G21G22G26G29
 127144043.502 6  99073365.00343  24194703.781
  24194712.625          38.300          21.300
 132843173.178 6 103514283.38743  25279192.672
  25279200.055          40.500          21.700
 126965737.844 6  98934335.32144  24160739.477
  24160747.309          40.900          25.300
 114825743.635 8  89474739.37346  21850613.992
  21850620.020          50.000          37.900
 131925314.271 4                  25104554.617
                        29.600
 110153419.186 8  85833977.53746  20961476.391
  20961481.090          49.600          41.500
 111413892.022 8  86816135.01346  21201339.438
  21201343.590          50.600          40.700
 107473079.645 7  83745277.13246  20451394.313
  20451398.313          47.300          40.500
 124947454.044 7  97361714.30744  23776703.648
  23776707.016          45.500          28.200
 123407333.676 7  96161662.87844  23483600.930
  23483607.840          42.700          24.600
 128969180.481 6 100495647.40244  24542009.063
  24542017.234          40.800          24.700
 11 11 22  0  3  0.0000000  0 11G03G05G06G09G14G15G18G21G22G26G29
 127135504.465 6  99066711.25843  24193078.938
  24193087.137          39.100          21.800
 132926398.524 7 103579134.32843  25295030.688
  25295037.250          42.500          23.000
 126962085.826 6  98931489.63244  24160044.477
  24160052.219          38.900          25.100
 114740008.205 8  89407932.60746  21834299.039
  21834305.309          50.100          37.700
 131826241.453 4                  25085701.359
                        29.600
 110211553.915 8  85879277.33447  20972538.734
  20972543.523          49.900          42.400
 111372434.096 8  86783830.17146  21193449.969
  21193454.293          50.800          40.000
 107453940.209 8  83730363.30446  20447752.063
  20447755.875          48.500          40.400
 124870060.895 7  97301408.01344  23761977.117
  23761979.953          44.700          28.400
 123519755.141 6  96249263.97344  23504994.727
  23505000.863          41.700          24.600
 129068767.657 6 100573247.77244  24560960.633
  24560967.926          40.800          24.200
 11 11 22  0  3 30.0000000  0 11G03G05G06G09G14G15G18G21G22G26G29
 127127513.127 6  99060484.33643  24191557.461
  24191566.648          39.500          21.300
 133009665.888 7 103644017.98444  25310875.734
  25310882.793          42.400          26.200
 126958929.131 6  98929029.93544  24159444.289
  24159451.863          41.000          26.800
 114654686.893 8  89341448.53646  21818063.359
  21818069.184          50.200          38.400
 131727288.962 5                  25066870.297
                        31.200
 110270018.107 8  85924833.86046  20983664.086
  20983669.082          50.000          41.700
 111331137.616 8  86751651.12346  21185591.336
  21185595.930          50.800          40.100
 107435320.845 8  83715854.72846  20444208.961
  20444212.883          48.100          40.600
 124792707.964 7  97241133.12244  23747256.453
  23747260.664          43.800          28.900
 123632286.229 7  96336950.48344  23526408.945
  23526415.078          42.500          25.500
 129168300.967 6 100650806.17043  24579900.570
  24579908.590          40.400          23.600
 11 11 22  0  4  0.0000000  0 11G03G05G06G09G14G15G18G21G22G26G29
 127120069.115 6  99054683.85343  24190140.766
  24190150.219          40.300          21.300
 133092974.987 6 103708934.09244  25326728.445
  25326735.977          41.500          25.300
 126956267.264 6  98926955.80644  24158937.555
  24158945.254          40.900          25.500
 114569782.969 8  89275289.70146  21801906.234
  21801912.316          49.700          37.500
 131628457.913 5                  25048063.656
                        32.300
 110328809.602 8  85970645.42146  20994851.391
  20994856.258          50.200          41.900
 111290003.306 8  86719598.44446  21177763.695
  21177768.754          50.800          40.600
 107417223.052 8  83701752.57146  20440764.969
  20440768.691          48.800          40.800
 124715395.558 7  97180889.80744  23732543.047
  23732548.168          43.100          28.600
 123744924.725 7  96424720.72344  23547843.250
  23547849.555          42.600          26.300
 129267777.766 6 100728320.50743  24598830.484
  24598838.410          40.200          22.600
 11 11 22  0  4 30.0000000  0 11G03G05G06G09G14G15G18G21G22G26G29
 127113172.062 6  99049309.65043  24188828.758
  24188837.281          41.800          22.000
 133176325.571 6 103773882.52544  25342589.797
  25342597.266          40.700          24.800
 126954099.661 6  98925266.85044  24158524.797
  24158532.938          41.700          25.000
 114485299.462 8  89209458.44746  21785829.422
  21785835.656          49.800          37.300
 131529749.431 5                  25029279.570
                        32.500
 110387925.783 8  86016709.98446  21006101.156
  21006106.258          50.200          41.900
 111249031.900 8  86687672.70446  21169967.445
  21169971.359          50.500          40.300
 107399648.028 8  83688057.76746  20437420.586
  20437424.066          48.500          40.300
 124638124.477 7  97120678.69544  23717839.516
  23717844.145          42.500          27.900
 123857667.861 7  96512572.51044  23569297.406
  23569304.012          43.200          25.400
 129367195.447 6 100805788.81443  24617749.219
  24617756.883          40.700          22.300
 11 11 22  0  5  0.0000000  0 11G03G05G06G09G14G15G18G21G22G26G29
 127106821.738 6  99044361.39743  24187620.508
  24187628.574          40.500          22.300
 133259717.691 6 103838863.34644  25358459.266
  25358466.535          40.300          24.200
 126952425.827 6  98923962.60244  24158206.023
  24158214.340          39.900          25.800
 114401239.884 8  89143957.54546  21769833.344
  21769839.410          50.700          38.000
 131431164.914 5                  25010517.852
                        30.800
 110447364.624 8  86063025.98246  21017412.141
  21017416.863          49.600          41.600
 111208224.215 8  86655874.54446  21162201.992
  21162206.031          50.600          40.400
 107382597.215 8  83674771.43446  20434175.477
  20434179.633          48.900          40.700
 124560893.862 7  97060499.13144  23703142.586
  23703147.453          43.000          29.100
 123970513.204 7  96600503.93844  23590772.234
  23590777.621          42.800          25.800
 129466551.413 6 100883209.01943  24636656.000
  24636664.422          40.200          22.200
 11 11 22  0  5 30.0000000  0 11G03G05G06G09G14G15G18G21G22G26G29
 127101017.902 6  99039839.01743  24186515.953
  24186524.070          40.500          21.300
 133343151.419 6 103903876.58143  25374335.742
  25374343.715          39.200          21.700
 126951245.307 6  98923042.79244  24157982.141
  24157989.539          41.100          27.000
 114317607.570 8  89078789.57146  21753918.766
  21753924.402          49.600          38.200
 131332705.467 5                  24991782.508
                        32.500
 110507124.253 8  86109591.93247  21028783.758
  21028788.742          50.500          42.300
 111167580.852 8  86624204.42346  21154467.391
  21154471.734          50.800          40.100
 107366071.954 7  83661894.62746  20431031.016
  20431035.117          47.800          40.300
 124483704.604 7  97000351.79445  23688454.430
  23688459.438          44.100          31.200
 124083458.182 7  96688512.98144  23612264.141
  23612270.492          43.200          26.200
 129565842.397 6 100960578.57343  24655550.492
  24655558.258          39.300          21.300
 11 11 22  0  6  0.0000000  0 11G03G05G06G09G14G15G18G21G22G26G29
 127095760.087 6  99035742.09943  24185515.227
  24185523.699          41.200          21.700
 133426626.671 6 103968922.13843  25390220.531
  25390227.984          37.900          19.600
 126950557.704 7  98922507.06344  24157851.484
  24157859.609          42.200          26.500
 114234405.564 8  89013956.90946  21738085.734
  21738091.965          50.200          37.500
 131234372.932 5 102260576.83142  24973069.648
  24973078.051          34.500          16.300
 110567203.241 8  86156406.74046  21040216.273
  21040221.250          50.200          41.900
 111127102.176 8  86592662.61646  21146764.813
  21146768.746          50.700          40.200
 107350074.210 7  83649428.87146  20427987.234
  20427990.801          46.000          41.300
 124406557.567 7  96940237.31645  23673773.875
  23673778.250          45.100          32.400
 124196500.456 7  96776597.85844  23633775.406
  23633781.504          42.600          25.000
 129665066.370 6 101037895.92443  24674432.219
  24674439.961          38.600          21.700
 11 11 22  0  6 30.0000000  0 11G03G05G06G09G14G15G18G21G22G26G29
 127091047.492 6  99032070.02943  24184618.930
  24184626.535          41.500          22.300
 133510142.824 6 104033999.59043  25406113.383
  25406120.813          38.800          21.700
 126950361.913 7  98922354.56844  24157813.445
  24157821.355          43.200          26.900
 114151636.969 8  88949461.95746  21722335.648
  21722341.254          50.000          37.900
 131136168.090 6 102184053.80642  24954383.133
  24954391.199          36.400          15.600
 110627598.157 8  86203467.72146  21051709.508
  21051714.242          51.100          41.800
 111086789.102 8  86561249.85646  21139093.578
  21139097.758          50.200          40.200
 107334604.039 7  83637374.21246  20425042.766
  20425046.738          47.600          40.500
 124329452.695 7  96880155.70545  23659101.453
  23659105.461          46.000          31.900
 124309637.515 6  96864756.60443  23655304.039
  23655310.133          41.200          22.200
 129764219.974 6 101115158.41943  24693300.797
  24693308.496          39.400          22.200
 11 11 22  0  7  0.0000000  0 11G03G05G06G09G14G15G18G21G22G26G29
 127086879.608 6  99028822.44443  24183824.984
  24183833.934          41.100          22.800
 133593700.004 6 104099109.09343  25422013.844
  25422020.906          38.600          19.900
 126950657.719 7  98922585.12044  24157870.063
  24157877.145          43.000          25.800
 114069304.848 8  88885307.12546  21706668.000
  21706674.320          50.000          37.400
 131038092.110 6 102107631.13343  24935720.188
  24935727.570          37.900          18.600
 110688307.305 8  86250773.56746  21063262.070
  21063266.355          50.000          41.800
 111046641.811 8  86529966.28746  21131453.531
  21131457.992          50.300          40.900
 107319663.161 7  83625731.98346  20422199.609
  20422203.477          47.500          40.200
 124252390.338 7  96820107.20245  23644437.195
  23644440.918          45.900          32.800
 124422866.957 6  96952987.30643  23676851.398
  23676857.285          41.400          22.800
 129863300.650 6 101192364.11243  24712154.906
  24712162.695          38.800          22.000
 11 11 22  0  7 30.0000000  0 11G03G05G06G09G14G15G18G21G22G26G29
 127083255.963 7  99025998.90443  24183135.641
  24183143.883          42.400          22.200
 133677298.083 6 104164250.37243  25437922.008
  25437929.051          40.600          22.800
 126951444.337 7  98923198.13244  24158019.930
  24158027.359          42.300          26.200
 113987412.339 8  88821494.84346  21691084.453
  21691089.844          49.900          37.900
 130940146.496 6 102031309.93842  24917081.531
  24917088.387          36.900          16.900
 110749328.728 8  86298322.73746  21074874.008
  21074878.602          51.200          41.900
 111006661.334 8  86498812.69846  21123845.656
  21123849.828          50.500          40.400
 107305252.765 7  83614503.11946  20419457.805
  20419461.305          47.400          40.600
 124175370.699 7  96760091.99145  23629780.883
  23629784.238          47.300          30.900
 124536186.105 6  97041287.96743  23698414.898
  23698421.141          41.300          22.500
 129962305.739 6 101269510.88643  24730994.109
  24731003.016          40.200          21.100
 11 11 22  0  8  0.0000000  0 11G03G05G06G09G14G15G18G21G22G26G29
 127080176.274 7  99023599.23243  24182549.938
  24182558.047          42.200          22.500
 133760936.895 6 104229423.41143  25453837.688
  25453845.395          41.300          22.500
 126952721.239 6  98924193.18944  24158263.422
  24158270.188          41.800          27.700
 113905962.898 8  88758027.80346  21675584.914
  21675590.637          50.900          37.700
 130842332.402 6 101955091.28642  24898468.656
  24898474.180          37.100          17.400
 110810660.385 8  86346113.64846  21086545.047
  21086549.555          50.200          41.000
 110966848.324 8  86467789.59646  21116269.133
  21116273.695          49.500          40.700
 107291374.331 7  83603688.77346  20416816.617
  20416820.348          47.700          40.600
 124098394.189 7  96700110.36445  23615132.633
  23615135.766          47.400          30.100
 124649592.809 6  97129656.77144  23719995.867
  23720001.688          41.000          24.800
 130061232.716 6 101346596.79843  24749820.664
  24749827.574          40.500          22.600
 11 11 22  0  8 30.0000000  0 11G03G05G06G09G14G15G18G21G22G26G29
 127077640.297 6  99021623.25043  24182066.984
  24182074.922          41.700          22.800
 133844616.123 6 104294627.99043  25469762.047
  25469769.418          39.400          19.900
 126954487.829 7  98925569.82344  24158598.523
  24158606.488          44.300          26.600
 113824959.828 8  88694908.58146  21660170.664
  21660176.586          50.300          38.300
 130744651.202 6 101878976.12142  24879879.344
  24879886.027          37.500          16.900
 110872300.257 8  86394144.72246  21098274.273
  21098279.355          50.200          41.600
 110927203.380 8  86436897.45746  21108725.398
  21108729.668          48.300          41.100
 107278029.270 7  83593290.04146  20414277.117
  20414281.285          47.100          40.400
 124021461.244 7  96640162.67144  23600492.383
  23600495.816          45.600          28.300
 124763084.497 6  97218091.82544  23741593.313
  23741599.098          41.500          25.200
 130160078.805 6 101423619.70343  24768630.320
  24768638.426          40.100          22.600
 11 11 22  0  9  0.0000000  0 11G03G05G06G09G14G15G18G21G22G26G29
 127075647.482 7  99020070.45844  24181687.625
  24181696.504          42.200          25.000
 133928336.080 5 104359864.31842  25485692.945
  25485700.848          34.500          14.800
 126956743.092 7  98927327.22544  24159028.023
  24159035.668          43.700          27.200
 113744405.759 8  88632139.23746  21644841.695
  21644847.730          50.200          38.400
 130647103.827 6 101802965.30042  24861317.203
  24861323.965          37.300          17.400
 110934245.841 8  86442414.02046  21110062.414
  21110067.457          50.800          41.400
 110887727.335 8  86406136.92946  21101213.414
  21101217.613          48.900          40.900
 107265218.534 7  83583307.66346  20411839.234
  20411843.441          46.400          40.800
 123944572.452 7  96580249.37944  23585860.656
  23585863.527          44.100          26.200
 124876658.832 7  97306591.31144  23763205.148
  23763211.516          42.800          25.100
 130258841.254 6 101500577.39543  24787423.977
  24787432.445          40.200          22.200
 11 11 22  0  9 30.0000000  0 11G03G05G06G09G14G15G18G21G22G26G29
 127074197.010 6  99018940.31144  24181411.484
  24181419.969          41.100          24.600


 126959486.747 7  98929465.19644  24159549.813
  24159556.820          43.500          25.800
 113664304.245 8  88569722.53346  21629598.945
  21629604.695          50.100          38.100
 130549691.994 5 101727060.11442  24842779.820
  24842787.188          34.800          17.400
 110996495.409 8  86490920.18647  21121907.984
  21121912.941          50.500          42.100
 110848420.798 8  86375508.48746  21093733.383
  21093737.668          48.500          40.800
 107252943.332 7  83573742.58046  20409503.188
  20409507.254          47.800          41.100
 123867727.962 7  96520370.63844  23571237.453
  23571241.230          42.100          26.200
 124990313.468 7  97395153.34144  23784833.000
  23784839.922          42.200          24.800
 130357517.690 6 101577468.10343  24806200.984
  24806209.211          40.400          22.900
 11 11 22  0 10  0.0000000  0 10G03G06G09G14G15G18G21G22G26G29
 127073288.490 6  99018232.43944  24181239.008
  24181247.246          41.600          25.300
 126962717.890 7  98931983.06344  24160164.734
  24160172.195          43.400          28.100
 113584658.399 8  88507660.89546  21614443.055
  21614448.879          49.500          38.900
 130452416.756 5 101651261.28142  24824268.430
  24824276.691          33.800          16.300
 111059047.104 8  86539661.77446  21133811.219
  21133816.039          50.500          41.800
 110809284.502 8  86345012.69946  21086285.883
  21086290.281          49.600          40.200
 107241205.161 7  83564595.97046  20407269.391
  20407273.867          47.100          40.600
 123790928.512 7  96460527.01944  23556622.008
  23556626.570          42.600          27.700
 125104046.109 6  97483776.16444  23806475.711
  23806481.813          41.400          26.300
 130456105.692 6 101654289.89143  24824962.406
  24824970.594          39.400          23.600
 11 11 22  0 10 30.0000000  0 10G03G06G09G14G15G18G21G22G26G29
 127072921.347 6  99017946.42443  24181168.406
  24181176.875          41.800          22.900
 126966436.025 7  98934880.33844  24160872.313
  24160879.383          43.800          27.200
 113505471.248 8  88445956.67546  21599374.000
  21599379.457          49.000          38.300
 130355279.496 5 101575570.00342  24805782.914
  24805791.930          34.300          15.600
 111121898.683 8  86588637.03646  21145771.883
  21145776.602          50.700          41.100
 110770319.193 8  86314650.14446  21078871.164
  21078875.391          49.600          41.100
 107230004.953 7  83555868.54946  20405138.063
  20405142.141          44.300          40.400
 123714174.426 6  96400718.70644  23542016.609
  23542020.863          40.600          28.700
 125217854.119 6  97572457.71244  23828132.828
  23828138.473          41.700          24.300
 130554602.318 6 101731040.46643  24843705.539
  24843714.148          40.200          23.500
 11 11 22  0 11  0.0000000  0 10G03G06G09G14G15G18G21G22G26G29
 127073094.599 6  99018081.47744  24181201.133
  24181210.148          40.500          24.600
 126970640.034 7  98938156.28444  24161672.016
  24161679.582          43.400          27.400
 113426746.118 8  88384612.47746  21584393.227
  21584398.730          49.600          38.400
 130258281.588 5 101499987.37142  24787325.203
  24787333.504          34.300          17.400
 111185047.861 8  86637844.19446  21157788.750
  21157793.191          50.500          41.100
 110731525.675 8  86284421.45446  21071488.813
  21071492.973          49.300          40.800
 107219343.897 7  83547561.24246  20403109.477
  20403113.199          46.500          40.600
 123637466.108 7  96340946.08945  23527419.664
  23527423.988          45.900          30.700
 125331735.310 6  97661196.27243  23849803.805
  23849809.898          40.200          22.500
 130653004.964 6 101807717.82144  24862431.250
  24862439.438          40.600          25.400
 11 11 22  0 11 30.0000000  0 10G03G06G09G14G15G18G21G22G26G29
 127073807.531 6  99018637.08143  24181337.641
  24181345.379          40.600          23.200
 126975329.067 7  98941810.13644  24162564.273
  24162572.105          43.400          28.900
 113348485.875 7  88323630.52846  21569500.516
  21569506.000          47.800          38.600
 130161423.986 6 101424514.06143  24768895.180
  24768901.582          36.100          19.000
 111248492.216 8  86687281.36246  21169861.305
  21169866.008          49.100          41.300
 110692904.415 8  86254326.99246  21064139.602
  21064143.555          50.300          40.800
 107209222.745 7  83539674.64846  20401183.648
  20401187.543          47.000          40.300
 123560803.751 7  96281209.25445  23512832.133
  23512836.000          42.800          32.800
 125445687.197 6  97749989.92643  23871487.492
  23871494.078          39.800          21.100
 130751310.808 6 101884319.72143  24881137.984
  24881145.973          40.600          22.600
 11 11 22  0 12  0.0000000  0 10G03G06G09G14G15G18G21G22G26G29
 127075059.442 6  99019612.65743  24181575.078
  24181583.809          40.000          22.800
 126980502.449 7  98945841.39244  24163548.789
  24163555.992          42.700          27.500
 113270693.740 8  88263013.33946  21554697.219
  21554702.926          48.200          38.400
 130064707.578 6 101349150.80843  24750489.188
  24750496.934          37.200          18.300
 111312229.872 8  86736947.07846  21181990.648
  21181995.078          50.200          40.900
 110654456.423 8  86224367.54446  21056822.922
  21056827.426          49.900          40.800
 107199643.086 7  83532209.99046  20399360.766
  20399364.250          46.000          40.600
 123484187.684 7  96221508.50445  23498252.367
  23498256.375          45.300          33.700
 125559707.447 6  97838836.85943  23893184.172
  23893191.016          39.000          20.900
 130849517.233 6 101960844.15943  24899825.820
  24899833.836          40.800          23.900
 11 11 22  0 12 30.0000000  0 10G03G06G09G14G15G18G21G22G26G29
 127076849.866 7  99021007.87443  24181916.063
  24181924.668          42.100          23.400
 126986159.238 7  98950249.35244  24164625.094
  24164632.852          43.400          27.700
 113193372.615 8  88202763.17646  21539983.250
  21539989.090          50.200          38.100
 129968133.714 6 101273898.60543  24732112.852
  24732119.492          39.400          21.700
 111376258.568 8  86786839.57146  21194174.836
  21194179.344          50.500          40.900
 110616181.516 8  86194542.96246  21049538.938
  21049544.059          49.500          40.700
 107190605.566 7  83525167.78146  20397640.820
  20397644.438          47.700          40.900
 123407618.449 7  96161844.22945  23483682.031
  23483685.242          47.600          33.600
 125673793.667 6  97927735.20243  23914895.141
  23914901.152          40.100          22.600
 130947621.547 6 102037289.04544  24918494.633
  24918502.742          41.300          24.800
 11 11 22  0 13  0.0000000  0 10G03G06G09G14G15G18G21G22G26G29
 127079177.792 6  99022821.87244  24182359.016
  24182367.465          40.600          25.400
 126992298.511 7  98955033.23544  24165793.719
  24165801.086          43.000          27.900
 113116525.241 8  88142882.16346  21525359.602
  21525365.230          50.800          38.600
 129871703.675 6 101198758.46843  24713762.336
  24713768.836          38.600          19.600
 111440576.476 8  86836957.42746  21206413.938
  21206418.703          50.300          41.400
 110578080.827 8  86164854.15346  21042289.242
  21042293.570          49.700          40.200
 107182111.442 7  83518548.99846  20396024.313
  20396028.332          47.200          40.700
 123331096.310 8  96102216.66445  23469120.078
  23469123.875          48.200          33.200
 125787943.526 6  98016683.13143  23936617.563
  23936623.117          40.900          22.600
 131045621.447 6 102113652.56343  24937143.219
  24937151.641          40.600          22.900
 11 11 22  0 13 30.0000000  0 10G03G06G09G14G15G18G21G22G26G29
 127082042.640 7  99025054.31544  24182904.641
  24182912.223          43.000          24.400
 126998919.577 7  98960192.57244  24167053.102
  24167060.805          43.500          26.800
 113040154.828 8  88083372.80246  21510826.891
  21510832.363          49.600          38.400
 129775418.765 5 101123731.45542  24695438.852
  24695446.449          35.900          17.400
 111505181.390 8  86887298.92346  21218707.469
  21218712.453          50.500          41.300
 110540155.130 8  86135301.68246  21035072.508
  21035076.324          50.300          41.100
 107174161.619 7  83512354.34046  20394511.445
  20394515.227          47.700          40.700
 123254621.985 7  96042626.34245  23454567.758
  23454570.883          47.300          32.700
 125902154.753 7  98105678.88943  23958350.219
  23958357.023          42.300          22.300
 131143514.224 6 102189932.59244  24955771.797
  24955780.125          41.600          25.300
 11 11 22  0 14  0.0000000  0 10G03G06G09G14G15G18G21G22G26G29
 127085443.636 7  99027704.49844  24183551.930
  24183559.820          43.100          25.300
 127006021.555 7  98965726.63344  24168404.484
  24168412.238          42.800          28.300
 112964264.732 8  88024237.72346  21496385.500
  21496390.926          50.100          38.600
 129679280.103 5 101048818.44942  24677144.063
  24677152.023          34.800          17.800
 111570071.371 8  86937862.55446  21231056.008
  21231061.031          50.300          40.700
 110502405.279 8  86105886.24846  21027888.602
  21027893.094          49.800          41.100
 107166757.379 7  83506584.81046  20393102.227
  20393106.773          47.800          40.400
 123178195.872 7  95983073.60245  23440023.273
  23440027.266          45.000          30.800
 126016425.248 6  98194720.79744  23980096.359
  23980101.914          41.400          26.200
 131241297.356 6 102266127.18144  24974379.617
  24974387.660          41.800          25.300
 11 11 22  0 14 30.0000000  0 10G03G06G09G14G15G18G21G22G26G29
 127089380.101 7  99030771.93144  24184300.789
  24184308.672          42.300          24.800
 127013603.544 7  98971634.70644  24169847.367
  24169854.941          43.100          28.200
 112888857.887 8  87965479.20046  21482035.758
  21482041.348          49.500          39.200
 129583289.201 6 100974020.47943  24658877.820
  24658885.324          36.500          18.600
 111635244.232 8  86988646.60946  21243457.641
  21243462.762          50.700          41.400
 110464832.116 8  86076608.49146  21020738.430
  21020742.688          49.900          40.500
 107159899.518 7  83501241.03346  20391797.734
  20391801.512          46.800          40.100
 123101818.308 6  95923558.68544  23425489.125
  23425493.113          41.500          29.100
 126130752.442 6  98283806.94244  24001851.367
  24001857.539          41.000          25.100
 131338968.080 6 102342234.19944  24992965.328
  24992974.035          40.200          24.600
 11 11 22  0 15  0.0000000  0 10G03G06G09G14G15G18G21G22G26G29
 127093851.282 7  99034256.02044  24185151.680
  24185159.082          43.000          24.800
 127021664.436 7  98977915.97444  24171381.070
  24171389.184          43.900          27.800
 112813936.952 8  87907099.30746  21467778.961
  21467784.691          48.800          39.200
 129487446.813 6 100899338.25543  24640640.586
  24640646.699          38.100          18.600
 111700697.792 8  87039649.38046  21255913.461
  21255918.211          50.700          41.700
 110427436.033 8  86047468.71246  21013622.297
  21013626.660          48.600          41.100
 107153589.106 7  83496323.83946  20390596.438
  20390600.582          47.400          40.800
 123025489.892 6  95864082.08544  23410964.375
  23410967.730          41.200          27.900
 126245134.259 6  98372935.58643  24023617.305
  24023624.086          39.900          22.600
 131436524.266 6 102418251.95244  25011530.203
  25011538.398          40.600          26.800
 11 11 22  0 15 30.0000000  0 10G03G06G09G14G15G18G21G22G26G29
 127098856.213 7  99038156.04844  24186103.305
  24186111.875          43.500          25.200
 127030203.547 7  98984569.86644  24173006.461
  24173014.219          44.500          28.500
 112739504.997 8  87849100.43246  21453614.664
  21453620.398          51.100          38.500
 129391754.177 6 100824772.69243  24622429.648
  24622436.594          37.500          18.600
 111766429.747 8  87090869.09146  21268421.742
  21268426.438          50.500          41.800
 110390217.792 8  86018467.51746  21006540.000
  21006544.031          49.900          40.900
 107147826.925 7  83491833.83846  20389500.031
  20389503.930          46.400          40.500
 122949210.888 7  95804643.95944  23396448.547
  23396451.723          44.300          27.100
 126359568.320 6  98462104.94343  24045392.844
  24045399.906          39.000          21.800
 131533963.017 6 102494178.21744  25030072.359
  25030080.258          41.100          27.000
 11 11 22  0 16  0.0000000  0 10G03G06G09G14G15G18G21G22G26G29
 127104394.044 7  99042471.29944  24187157.313
  24187165.309          43.400          26.600
 127039219.752 7  98991595.52644  24174722.508
  24174729.047          43.500          28.500
 112665565.266 8  87791485.10946  21439544.398
  21439550.121          50.700          38.900
 129296212.491 6 100750324.77543  24604248.398
  24604255.422          37.200          19.000
 111832438.767 8  87142304.69246  21280982.867
  21280987.691          50.500          41.800
 110353178.612 8  85989605.85146  20999491.852
  20999496.016          48.800          40.800
 107142614.343 7  83487772.09646  20388508.219
  20388512.441          46.000          40.500
 122872981.991 7  95745244.90044  23381942.000
  23381946.094          44.300          28.800
 126474052.684 5  98551313.50943  24067178.602
  24067185.461          35.800          19.000
 131631281.814 7 102570010.98644  25048591.023
  25048598.977          42.000          24.700
 11 11 22  0 16 30.0000000  0 10G03G06G09G14G15G18G21G22G26G29
 127110463.725 7  99047201.01444  24188312.633
  24188320.688          43.400          27.100
 127048712.059 7  98998992.17244  24176528.844
  24176536.242          43.200          28.300
 112592120.630 8  87734255.56746  21425568.523
  21425574.070          50.500          39.200
 129200822.891 5 100675995.36742  24586096.203
  24586103.352          34.800          16.900
 111898722.275 8  87193954.18246  21293596.195
  21293600.801          50.600          41.600
 110316318.913 8  85960884.03846  20992477.438
  20992481.480          49.800          41.000
 107137951.847 7  83484138.98846  20387621.438
  20387624.910          46.600          40.600
 122796803.450 7  95685885.06545  23367446.930
  23367449.820          45.100          30.900
 126588584.779 6  98640559.27743  24088974.375
  24088980.246          38.400          20.100
 131728478.324 6 102645748.47944  25067086.773
  25067095.309          41.800          24.600
 11 11 22  0 17  0.0000000  0 10G03G06G09G14G15G18G21G22G26G29
 127117064.258 7  99052344.34944  24189568.203
  24189576.340          43.800          26.400
 127058679.502 7  99006759.03944  24178425.008
  24178432.879          43.200          27.100
 112519174.048 8  87677414.13646  21411687.250
  21411692.496          50.300          38.800
 129105586.309 6 100601785.17843  24567973.805
  24567980.570          37.300          20.600
 111965278.300 8  87245816.02346  21306261.063
  21306266.125          50.400          40.900
 110279639.688 8  85932302.85046  20985497.578
  20985501.801          49.000          40.800
 107133840.517 7  83480935.36546  20386838.758
  20386842.391          45.500          40.900
 122720675.876 7  95626564.96545  23352960.172
  23352963.379          47.000          31.300
 126703162.550 6  98729840.65843  24110776.969
  24110783.523          39.900          20.600
 131825549.981 7 102721388.63543  25085559.469
  25085567.398          42.000          23.200
 11 11 22  0 17 30.0000000  0 10G03G06G09G14G15G18G21G22G26G29
 127124195.023 7  99057900.87944  24190925.172
  24190933.109          43.700          26.100
 127069121.031 7  99014895.34844  24180412.609
  24180418.688          44.100          28.100
 112446728.231 8  87620962.90646  21397901.375
  21397906.559          51.300          39.000
 129010504.211 6 100527695.34243  24549880.289
  24549887.023          39.400          21.700
 112032104.692 8  87297888.54646  21318977.961
  21318982.902          51.300          41.200
 110243141.136 8  85903862.45146  20978552.039
  20978556.059          50.200          40.800
 107130281.264 7  83478161.93246  20386161.438
  20386165.195          44.000          40.500
 122644599.528 7  95567284.77545  23338483.039
  23338486.652          47.200          32.600
 126817783.724 6  98819155.87643  24132589.617
  24132595.313          41.700          22.300
 131922493.949 7 102796929.36743  25104007.508
  25104014.977          42.200          23.600
 11 11 22  0 18  0.0000000  0 10G03G06G09G14G15G18G21G22G26G29
 127131854.881 7  99063869.64744  24192382.539
  24192390.602          42.900          24.700
 127080035.474 7  99023400.16044  24182489.328
  24182496.254          43.600          29.100
 112374785.964 8  87564904.04746  21384211.148
  21384216.469          51.400          39.200
 128915577.652 6 100453726.76743  24531815.984
  24531823.266          37.900          19.900
 112099199.285 8  87350170.05846  21331745.672
  21331750.676          50.700          41.100
 110206824.490 8  85875563.79546  20971641.617
  20971645.332          50.400          40.800
 107127274.746 7  83475819.20346  20385589.250
  20385593.105          45.400          40.200
 122568574.940 7  95508044.92645  23324016.250
  23324019.641          47.500          33.000
 126932446.162 7  98908503.26243  24154408.734
  24154414.719          42.900          21.700
 132019307.719 6 102872368.57943  25122430.094
  25122438.574          40.900          22.000
 11 11 22  0 18 30.0000000  0 10G03G06G09G14G15G18G21G22G26G29
 127140042.829 7  99070249.92844  24193940.758
  24193948.844          43.100          25.900
 127091422.013 7  99032272.78744  24184656.648
  24184663.066          44.000          27.700
 112303350.525 8  87509240.12246  21370617.422
  21370622.719          50.800          39.400
 128820807.903 6 100379880.37143  24513782.078
  24513788.523          40.400          21.800
 112166560.276 8  87402659.15246  21344563.805
  21344568.453          50.600          40.900
 110170690.620 8  85847407.56046  20964764.922
  20964769.449          49.800          41.200
 107124821.980 7  83473907.96246  20385122.477
  20385126.477          45.700          40.600
 122492602.830 7  95448845.97445  23309559.320
  23309562.922          47.500          33.500
 127047147.579 7  98997881.00743  24176236.633
  24176241.602          42.500          22.000
 132115989.222 6 102947704.77943  25140828.531
  25140836.605          41.000          22.300
 11 11 22  0 19  0.0000000  0 10G03G06G09G14G15G18G21G22G26G29
 127148757.697 7  99077040.77644  24195599.117
  24195607.320          42.200          25.800
 127103279.380 7  99041512.35644  24186912.102
  24186918.820          44.600          26.900
 112232424.568 8  87453973.20346  21357120.602
  21357126.211          51.700          39.800
 128726195.803 6 100306156.76243  24495778.641
  24495784.184          38.600          20.600
 112234185.413 8  87455354.07246  21357432.773
  21357437.578          51.000          40.900
 110134740.099 8  85819394.18846  20957923.906
  20957928.234          50.300          41.000
 107122923.544 7  83472428.67046  20384761.398
  20384764.957          47.400          40.400
 122416683.361 7  95389688.04245  23295112.109
  23295115.656          47.000          33.500
 127161885.884 7  99087287.48243  24198069.836
  24198075.926          42.700          22.500
 132212535.718 6 103022935.79143  25159200.781
  25159209.207          40.500          22.900
 11 11 22  0 19 30.0000000  0 10G03G06G09G14G15G18G21G22G26G29
 127157998.542 6  99084241.47844  24197357.836
  24197365.543          41.700          25.300
 127115606.479 7  99051117.92044  24189258.008
  24189264.867          43.200          27.000
 112162011.259 8  87399105.74946  21343721.328
  21343726.758          50.600          39.200
 128631742.615 6 100232556.97543  24477804.102
  24477810.227          39.900          21.100
 112302072.738 8  87508253.29646  21370351.102
  21370355.824          50.400          40.600
 110098973.494 8  85791524.13646  20951117.805
  20951121.926          50.400          41.000
 107121580.544 7  83471382.18746  20384505.461
  20384509.145          45.100          39.900
 122340817.497 7  95330571.89745  23280674.773
  23280678.621          45.800          31.800
 127276658.898 6  99176720.96943  24219910.914
  24219917.141          40.900          22.600
 132308944.662 6 103098059.57943  25177546.930
  25177555.020          39.700          21.300
 11 11 22  0 20  0.0000000  0 10G03G06G09G14G15G18G21G22G26G29
 127167764.259 7  99091851.17944  24199216.133
  24199223.770          42.100          24.500
 127128402.211 7  99061088.66644  24191693.188
  24191699.602          44.800          27.500
 112092113.386 8  87344639.93446  21330419.648
  21330425.559          50.800          39.900
 128537449.557 6 100159081.97443  24459860.617
  24459866.875          39.900          21.800
 112370219.971 8  87561355.04146  21383319.000
  21383323.910          50.000          40.700
 110063391.796 8  85763798.16146  20944346.797
  20944351.398          50.500          41.100
 107120793.518 7  83470768.93046  20384355.633
  20384359.875          46.100          40.100
 122265005.150 7  95271497.46645  23266248.242
  23266251.965          45.600          31.800
 127391464.337 6  99266179.73443  24241756.859
  24241762.957          39.100          21.300
 132405213.616 6 103173074.27943  25195866.055
  25195873.953          39.400          21.100
 11 11 22  0 20 30.0000000  0 11G03G06G09G14G15G18G19G21G22G26G29
 127178054.161 6  99099869.34144  24201173.602
  24201181.801          41.200          24.900
 127141665.679 7  99071423.85444  24194217.086
  24194223.441          43.600          27.600
 112022733.724 8  87290577.91946  21317217.602
  21317223.094          50.500          39.700
 128443317.912 6 100085732.72743  24441947.586
  24441953.539          41.700          22.300
 112438625.345 8  87614657.94246  21396336.305
  21396340.949          50.000          40.800
 110027996.236 8  85736217.22546  20937611.141
  20937615.258          50.000          41.900
 134828087.605 5 105060907.50543  25656940.242
  25656947.625          34.800          18.300
 107120563.509 7  83470589.71046  20384312.125
  20384315.832          47.400          40.400
 122189247.300 7  95212465.47145  23251832.164
  23251835.273          45.800          31.100
 127506300.450 6  99355662.37543  24263608.922
  24263615.629          36.900          19.900
 132501340.353 6 103247978.20643  25214157.992
  25214166.348          40.700          20.400
 11 11 22  0 21  0.0000000  0 11G03G06G09G14G15G18G19G21G22G26G29
 127188866.946 6  99108294.95643  24203231.633
  24203239.031          41.500          23.800
 127155395.235 7  99082122.23844  24196829.992
  24196836.469          45.100          26.400
 111953874.936 8  87236921.78346  21304114.055
  21304119.688          49.800          40.100
 128349348.311 6 100012509.72643  24424065.750
  24424071.863          40.400          21.800
 112507286.592 8  87668160.22046  21409402.281
  21409406.641          50.000          40.300
 109992786.822 8  85708781.34046  20930911.266
  20930915.273          49.800          41.700
 134771840.686 5 105017078.86342  25646236.328
  25646244.145          31.200          16.900
 107120890.942 8  83470844.86146  20384374.148
  20384378.137          48.300          40.400
 122113544.008 7  95153475.98545  23237426.055
  23237429.609          46.000          31.200
 127621164.751 6  99445166.98243  24285467.492
  24285473.473          39.000          20.100
 132597322.199 6 103322769.21443  25232422.977
  25232430.918          39.800          22.600
 11 11 22  0 21 30.0000000  0 11G03G06G09G14G15G18G19G21G22G26G29
 127200201.274 7  99117126.95844  24205388.289
  24205396.801          42.100          27.600
 127169589.990 7  99093183.15244  24199530.766
  24199537.102          44.300          27.900
 111885540.002 8  87183673.84146  21291110.102
  21291115.887          49.800          40.100
 128255542.159 6  99939414.08543  24406215.047
  24406221.168          40.900          20.100
 112576201.738 8  87721860.34246  21422516.000
  21422520.828          50.800          40.600
 109957764.845 8  85681491.50646  20924246.852
  20924250.984          49.500          41.400
 134716025.794 5 104973586.84542  25635616.172
  25635622.664          33.700          16.300
 107121776.766 8  83471535.12246  20384542.797
  20384546.910          48.300          40.900
 122037896.331 7  95094529.83045  23223030.906
  23223033.801          46.100          31.300
 127736055.320 6  99534692.05543  24307330.570
  24307336.957          39.700          20.600
 132693156.857 6 103397445.51043  25250659.227
  25250668.184          38.300          22.600
 11 11 22  0 22  0.0000000  0 11G03G06G09G14G15G18G19G21G22G26G29
 127212055.897 7  99126364.39644  24207644.531
  24207651.457          43.000          24.800
 127184248.528 7  99104605.39344  24202319.828
  24202327.516          44.100          25.900
 111817731.262 8  87130835.91646  21278206.695
  21278212.078          49.300          40.100
 128161900.330 6  99866446.42843  24388395.047
  24388401.340          39.700          20.900
 112645368.604 8  87775756.60846  21435678.203
  21435683.023          51.100          40.400
 109922930.816 8  85654348.12746  20917617.523
  20917622.117          49.400          41.800
 134660644.007 5 104930432.25142  25625076.602
  25625084.055          35.300          17.800
 107123221.239 7  83472660.69146  20384818.008
  20384821.863          44.800          40.500
 121962304.383 7  95035627.09545  23208646.016
  23208649.020          47.200          31.800
 127850969.907 6  99624235.93543  24329197.914
  24329204.512          40.400          21.500
 132788841.466 6 103472004.92043  25268867.727
  25268876.418          38.100          21.300
 11 11 22  0 22 30.0000000  0 11G03G06G09G14G15G18G19G21G22G26G29
 127224430.023 7  99136006.62744  24209998.891
  24210007.152          42.600          24.200
 127199370.022 7  99116388.40844  24205197.672
  24205204.035          44.300          26.200
 111750451.959 8  87078410.54146  21265403.609
  21265409.629          49.800          39.600
 128068423.992 6  99793607.77743  24370607.719
  24370613.531          40.900          22.800
 112714785.397 8  87829847.61746  21448887.281
  21448892.258          50.200          40.900
 109888286.143 8  85627352.30046  20911025.297
  20911029.691          49.600          41.400
 134605697.511 5 104887616.96042  25614619.117
  25614627.770          33.500          14.800
 107125225.396 7  83474222.38246  20385198.992
  20385203.113          46.500          40.500
 121886768.969 7  94976768.39645  23194272.492
  23194275.129          47.800          31.700
 127965906.572 6  99713796.97743  24351070.750
  24351075.738          40.900          21.700
 132884374.207 6 103546445.93043  25287047.250
  25287056.262          37.600          21.300
 11 11 22  0 23  0.0000000  0 11G03G06G09G14G15G18G19G21G22G26G29
 127237322.172 7  99146052.52544  24212451.750
  24212460.180          42.900          25.600
 127214952.710 7  99128530.80444  24208163.016
  24208169.344          43.900          25.300
 111683704.644 7  87026399.69746  21252701.977
  21252707.766          47.600          40.200
 127975114.307 6  99720898.98043  24352850.453
  24352857.344          40.600          23.400
 112784450.047 8  87884131.76246  21462144.602
  21462149.406          49.800          40.900
 109853831.134 7  85600504.26146  20904468.992
  20904472.938          47.800          40.800
 134551187.713 5 104845141.87142  25604247.617
  25604254.801          35.400          16.300
 107127789.694 7  83476220.54646  20385687.000
  20385691.109          43.900          40.600
 121811290.490 7  94917954.05345  23179908.688
  23179911.855          46.300          31.900
 128080863.041 6  99803373.48543  24372945.391
  24372951.066          40.900          19.300
 132979752.094 6 103620766.29743  25305197.188
  25305205.949          37.700          20.100
 11 11 22  0 23 30.0000000  0 11G03G06G09G14G15G18G19G21G22G26G29
 127250731.281 7  99156501.27544  24215002.898
  24215011.484          42.200          24.700
 127230995.600 7  99141031.81144  24211215.734
  24211222.652          43.800          27.600
 111617492.110 8  86974805.56246  21240102.109
  21240107.852          50.000          40.100
 127881972.465 6  99648320.98544  24335127.203
  24335133.352          39.600          24.400
 112854360.606 8  87938607.52446  21475447.867
  21475452.895          50.300          40.200
 109819566.578 8  85573804.61746  20897948.602
  20897952.313          49.700          41.700
 134497116.715 6 104803008.74542  25593958.828
  25593965.813          37.100          17.400
 107130914.958 7  83478655.82346  20386281.961
  20386286.066          45.700          40.400
 121735869.387 7  94859184.43645  23165556.852
  23165559.926          46.500          32.700
 128195837.374 6  99892963.96043  24394824.516
  24394829.980          40.000          19.900
 133074972.924 6 103694964.30642  25323316.555
  25323325.535          36.500          16.900
 11 11 22  0 24  0.0000000  0 11G03G06G09G14G15G18G19G21G22G26G29
 127264656.197 7  99167351.93844  24217653.305
  24217661.672          43.700          25.900
 127247497.644 7  99153890.54944  24214355.516
  24214363.160          43.600          27.400
 111551817.176 8  86923630.34446  21227604.773
  21227609.977          48.800          40.200
 127788999.168 6  99575874.30643  24317434.656
  24317440.797          38.200          23.200
 112924514.645 8  87993273.00646  21488797.938
  21488802.617          49.800          40.200
 109785493.644 8  85547254.29546  20891464.797
  20891468.484          48.800          41.100
 134443485.899 6 104761218.68542  25583751.641
  25583759.934          36.200          17.800
 107134601.661 7  83481528.58846  20386983.234
  20386987.313          47.300          40.500
 121660506.347 7  94800460.08445  23151215.234
  23151218.230          46.600          32.000
 128310827.592 6  99982566.71543  24416705.383
  24416712.680          39.100          19.600
 133170034.588 5 103769038.35442  25341406.203
  25341415.836          34.200          14.800
 11 11 22  0 24 30.0000000  0 11G03G06G09G14G15G18G19G21G22G26G29
 127279095.557 7  99178603.46744  24220400.930
  24220409.277          42.700          24.600
 127264457.260 7  99167105.87444  24217583.352
  24217589.605          43.900          26.700
 111486682.626 8  86872876.20546  21215210.266
  21215215.398          50.300          40.100
 127696195.696 6  99503560.00643  24299775.328
  24299781.020          39.000          22.500
 112994910.344 8  88048126.79946  21502193.781
  21502198.313          50.100          40.500
 109751613.104 8  85520853.89346  20885017.352
  20885020.988          50.200          41.000
 134390296.785 5 104719772.74442  25573630.703
  25573638.242          34.700          17.800
 107138850.483 7  83484839.36746  20387792.313
  20387795.918          44.500          39.700
 121585201.908 7  94741781.39045  23136885.578
  23136888.184          46.500          33.000
 128425831.698 6 100072180.26743  24438589.594
  24438597.043          37.800          19.000
 133264934.738 5 103842986.41652  25359464.922
  25359475.027          31.300          13.900
 11 11 22  0 25  0.0000000  0 11G03G06G09G14G15G18G19G21G22G26G29
 127294048.203 7  99190254.94444  24223246.289
  24223254.141          43.000          24.300
 127281873.229 7  99180676.79144  24220897.211
  24220904.215          44.000          26.500
 111422090.942 8  86822545.07946  21202918.719
  21202923.770          49.600          40.200
 127603563.088 6  99431378.85643  24282146.586
  24282153.762          37.800          21.300
 113065545.813 8  88103167.42446  21515635.289
  21515639.719          49.800          40.800
 109717925.762 8  85494604.03346  20878606.898
  20878610.738          50.300          41.400
 134337550.844 5 104678672.11242  25563594.594
  25563601.379          35.700          17.400
 107143661.486 7  83488588.20946  20388707.555
  20388711.574          46.800          40.400
 121509956.686 7  94683148.84045  23122566.227
  23122570.266          46.100          33.000
 128540847.653 6 100161803.03843  24460477.875
  24460483.559          38.400          18.600
 133359670.896 5                  25377493.484
                        31.800
 11 11 22  0 25 30.0000000  0 11G03G06G09G14G15G18G19G21G22G26G29
 127309512.666 7  99202305.25044  24226188.625
  24226196.910          43.900          24.700
 127299744.227 7  99194602.25844  24224298.070
  24224304.609          44.200          26.500
 111358044.793 8  86772639.02346  21190730.984
  21190736.133          50.500          40.000
 127511102.524 6  99359331.73043  24264552.703
  24264558.625          38.800          22.200
 113136419.204 8  88158393.44346  21529122.164
  21529126.395          49.300          40.700
 109684432.301 8  85468505.24546  20872233.133
  20872237.141          50.000          40.500
 134285249.985 6 104637918.32942  25553641.992
  25553647.980          38.700          17.400
 107149035.896 8  83492776.06246  20389730.484
  20389734.035          48.200          40.400
 121434771.355 7  94624562.96545  23108259.266
  23108263.152          47.300          33.800
 128655873.412 6 100251433.47143  24482366.766
  24482372.742          38.300          21.300
 133454240.598 4                  25395489.867
                        28.900
 11 11 22  0 26  0.0000000  0 11G03G06G09G14G15G18G19G21G22G26G29
 127325487.551 7  99214753.25744  24229229.141
  24229236.832          43.200          24.800
 127318068.708 7  99208881.07844  24227785.328
  24227791.746          43.400          26.400
 111294546.701 8  86723160.04246  21178647.453
  21178652.883          50.300          40.200
 127418814.843 6  99287419.34343  24246990.523
  24246997.590          40.200          22.000
 113207528.243 8  88213803.08446  21542653.453
  21542658.402          48.600          39.900
 109651133.585 8  85442558.21246  20865896.367
  20865900.617          50.200          41.300
 134233395.610 6 104597512.37042  25543773.203
  25543780.180          39.100          17.400
 107154973.940 8  83497403.11846  20390860.070
  20390864.066          48.300          40.600
 121359646.137 7  94566023.89845  23093963.781
  23093966.965          46.700          33.900
 128770906.859 6 100341069.93643  24504256.148
  24504262.508          38.700          20.400
 133548641.352 4                  25413454.102
                        28.000
 11 11 22  0 26 30.0000000  0 10G03G06G09G14G15G18G19G21G22G26
 127341971.787 7  99227598.21044  24232366.063
  24232373.379          42.600          25.600
 127336845.539 7  99223512.42744  24231357.734
  24231364.883          43.400          27.300
 111231599.501 8  86674110.31946  21166669.320
  21166674.371          49.600          40.600
 127326701.314 6  99215642.64643  24229462.664
  24229468.336          41.100          23.000
 113278870.946 8  88269394.80646  21556229.547
  21556234.199          48.800          39.600
 109618030.698 8  85416763.77246  20859597.633
  20859601.145          50.100          41.400
 134181989.321 6 104557455.62642  25533990.547
  25533997.836          38.400          16.300
 107161476.167 7  83502469.79446  20392097.547
  20392101.246          47.700          40.500
 121284582.075 7  94507532.49945  23079679.500
  23079682.090          46.900          34.100
 128885946.170 6 100430710.97543  24526146.992
  24526153.508          39.100          21.500
 11 11 22  0 27  0.0000000  0 10G03G06G09G14G15G18G19G21G22G26
 127358963.774 6  99240838.77143  24235599.414
  24235606.219          40.000          22.800
 127356073.544 6  99238495.30444  24235016.594
  24235023.699          41.800          27.000
 111169205.678 8  86625491.80246  21154795.836
  21154801.359          50.200          40.000
 127234763.170 7  99144002.57443  24211967.078
  24211972.617          42.600          22.600
 113350445.689 8  88325167.33546  21569849.617
  21569854.340          49.600          40.000
 109585124.689 8  85391122.74046  20853335.570
  20853339.297          50.700          41.800
 134131032.717 6 104517749.28443  25524294.273
  25524301.035          40.300          20.900
 107168543.201 8  83507976.57646  20393442.172
  20393445.875          48.600          40.200
