     2.11           OBSERVATION DATA    G (GPS)             RINEX VERSION / TYPE
teqc  2019Feb25     root                20210522 15:05:49UTCPGM / RUN BY / DATE
Linux 2.4.21-27.ELsmp|Opteron|gcc|Linux 64|=+               COMMENT
teqc  2019Feb25     root                20210522 15:05:39UTCCOMMENT
     2.11           OBSERVATION DATA    M (MIXED)           COMMENT
teqc  2019Feb25     NOAA/NOS/NGS/CORS   20210511 00:39:56UTCCOMMENT
+39.764739464 (latitude)                                    COMMENT
-084.18064853 (longitude)                                   COMMENT
+196.575      (elevation)                                   COMMENT
+.000000      (antenna height)                              COMMENT
BIT 2 OF LLI FLAGS DATA COLLECTED UNDER A/S CONDITION       COMMENT
 SNR is mapped to RINEX snr flag value [0-9]                COMMENT
  L1 & L2: min(max(int(snr_dBHz/6), 0), 9)                  COMMENT
teqc.e edited: all SBAS satellites excluded                 COMMENT
teqc.e edited: all QZSS satellites excluded                 COMMENT
OHDT                                                        MARKER NAME
48                                                          MARKER NUMBER
David Beiter        OHDT                                    OBSERVER / AGENCY
4852K33878          TRIMBLE NETR8       48.01               REC # / TYPE / VERS
31177266            TRM57971.00     NONE                    ANT # / TYPE
   497796.5080 -4884306.6100  4058066.6380                  APPROX POSITION XYZ
        0.0000        0.0000        0.0000                  ANTENNA: DELTA H/E/N
     1     1                                                WAVELENGTH FACT L1/2
     8    L1    L2    C1    C2    P1    P2    S1    S2      # / TYPES OF OBSERV
    30.0000                                                 INTERVAL
teqc.w windowed: start @ 2021 May 10 00:00:00.000           COMMENT
teqc.w windowed:  end  @ 2021 May 11 00:00:00.000           COMMENT
teqc.w edited: all GLONASS satellites excluded              COMMENT
Forced Modulo Decimation to 30 seconds                      COMMENT
  2021     5    10     0     0    0.0000000     GPS         TIME OF FIRST OBS
                                                            END OF HEADER
 21  5 10  0  0  0.0000000  0 10G02G05G06G12G13G15G18G20G25G29
 116023891.561 8  90408274.92846  22078601.617
  22078603.031          48.400          37.500
 105487547.883 8  82198128.610 8  20073601.508    20073605.449
  20073605.629          49.600          53.300
 128858746.872 5 100409442.727 6  24520998.938    24521007.809
  24521007.332          35.700          38.600
 126355404.705 7  98458780.364 6  24044636.273    24044641.293
  24044640.715          42.500          37.300
 120654207.730 6  94016307.05944  22959725.391
  22959730.465          40.300          27.800
 127139757.346 7  99070008.828 6  24193897.883    24193903.133
  24193902.918          43.200          38.800
 131985530.782 6 102845882.819 7  25116010.070    25116016.086
  25116017.262          40.100          42.600
 114057659.145 7  88876130.28246  21704443.914
  21704447.555          47.500          37.100
 121624609.233 7  94772535.134 7  23144393.930    23144401.410
  23144400.633          44.300          42.800
 113887040.560 8  88743176.695 7  21671981.633    21671985.242
  21671985.297          49.200          46.600
 21  5 10  0  0 30.0000000  0 10G02G05G06G12G13G15G18G20G25G29
 116063609.879 8  90439224.24146  22086159.633
  22086161.934          48.200          38.000
 105481473.665 8  82193395.444 8  20072446.039    20072449.414
  20072449.512          49.400          52.800
 128938420.458 6 100471525.993 6  24536160.391    24536169.641
  24536168.984          36.400          41.700
 126457780.520 6  98538553.679 6  24064116.477    24064123.039
  24064122.453          40.200          38.100
 120556605.092 7  93940253.07344  22941153.219
  22941157.418          43.700          28.400
 127022243.478 7  98978439.692 6  24171535.898    24171541.082
  24171540.488          42.300          36.900
 131900191.715 6 102779384.911 6  25099771.484    25099777.168
  25099777.520          38.800          41.600
 113989262.917 7  88822834.53246  21691428.313
  21691431.523          47.100          36.700
 121694201.924 7  94826763.144 7  23157636.352    23157644.125
  23157644.305          44.600          43.300
 113814902.204 8  88686965.011 7  21658253.688    21658257.480
  21658257.582          49.600          47.000
 21  5 10  0  1  0.0000000  0 10G02G05G06G12G13G15G18G20G25G29
 116103504.261 8  90470310.75646  22093751.344
  22093753.367          48.000          37.600
 105475880.651 8  82189037.265 8  20071381.359    20071384.926
  20071384.832          49.300          52.700
 129018166.872 6 100533666.002 7  24551336.711    24551344.797
  24551344.586          38.600          42.000
 126560208.510 6  98618367.590 6  24083608.266    24083613.840
  24083613.539          38.600          39.700
 120459215.677 7  93864365.30644  22922620.250
  22922624.422          43.800          29.300
 126904749.788 6  98886886.190 5  24149176.805    24149181.551
  24149180.301          39.700          34.200
 131814839.414 6 102712876.676 6  25083529.305    25083535.023
  25083534.574          38.400          40.800
 113921158.993 7  88769766.54346  21678468.516
  21678472.035          46.500          37.500
 121764137.497 7  94881258.370 7  23170944.719    23170952.777
  23170952.191          45.000          43.600
 113743134.863 8  88631042.424 7  21644596.883    21644600.723
  21644601.027          49.000          47.200
 21  5 10  0  1 30.0000000  0 10G02G05G06G12G13G15G18G20G25G29
 116143574.337 8  90501534.16646  22101375.703
  22101377.719          48.700          37.700
 105470767.145 8  82185052.694 8  20070408.703    20070412.188
  20070412.094          49.600          52.700
 129097985.230 6 100595862.060 7  24566525.047    24566533.898
  24566533.801          38.700          42.900
 126662684.977 7  98698219.197 6  24103109.172    24103115.074
  24103114.676          42.000          40.300
 120362042.355 7  93788645.91945  22904128.672
  22904132.859          44.900          30.200
 126787278.706 6  98795350.329 6  24126822.141    24126828.270
  24126827.664          37.600          38.000
 131729473.249 6 102646357.641 6  25067284.430    25067289.633
  25067290.133          37.600          40.800
 113853347.118 7  88716926.14146  21665564.398
  21665567.758          46.900          37.900
 121834412.285 7  94936017.887 7  23184318.648    23184325.820
  23184325.926          42.300          44.100
 113671740.190 8  88575410.200 7  21631010.734    21631014.492
  21631014.457          48.100          46.100
 21  5 10  0  2  0.0000000  0 10G02G05G06G12G13G15G18G20G25G29
 116183821.205 7  90532895.34146  22109035.164
  22109037.820          47.700          37.600
 105466132.994 8  82181441.676 8  20069526.383    20069529.660
  20069529.949          49.900          52.700
 129177876.110 6 100658114.655 6  24581727.664    24581736.781
  24581735.699          37.800          41.300
 126765207.160 7  98778106.546 7  24122619.609    24122625.270
  24122624.973          43.200          42.400
 120265089.160 7  93713098.00244  22885678.914
  22885682.391          43.900          27.800
 126669833.642 6  98703834.785 6  24104473.438    24104479.301
  24104479.098          40.400          38.600
 131644094.342 6 102579828.679 6  25051036.797    25051042.453
  25051041.727          38.100          39.000
 113785828.499 8  88664314.23646  21652716.125
  21652719.773          48.400          37.600
 121905024.101 7  94991040.071 7  23197754.781    23197762.492
  23197763.004          43.100          44.400
 113600721.799 8  88520071.198 7  21617496.469    21617500.066
  21617500.141          49.200          46.900
 21  5 10  0  2 30.0000000  0 10G02G05G06G12G13G15G18G20G25G29
 116224244.786 7  90564394.22346  22116727.555
  22116729.578          47.400          37.100
 105461977.206 8  82178203.387 8  20068736.063    20068739.098
  20068739.074          48.300          52.900
 129257839.400 6 100720423.672 7  24596943.797    24596953.410
  24596952.988          38.800          43.500
 126867771.981 7  98858027.052 7  24142136.406    24142142.234
  24142142.348          43.000          42.200
 120168358.835 7  93637723.76744  22867271.086
  22867275.469          43.600          27.800
 126552416.991 6  98612341.351 6  24082129.875    24082135.730
  24082135.473          41.600          41.400
 131558702.641 6 102513289.688 6  25034787.469    25034793.422
  25034793.039          39.500          40.400
 113718603.712 7  88611931.30446  21639923.195
  21639926.914          47.500          37.400
 121975969.635 7  95046322.232 7  23211255.234    23211263.195
  23211263.031          42.300          42.900
 113530081.735 7  88465026.972 7  21604054.031    21604058.539
  21604058.465          47.500          47.100
 21  5 10  0  3  0.0000000  0 10G02G05G06G12G13G15G18G20G25G29
 116264845.581 8  90596031.17446  22124454.000
  22124455.988          48.700          38.300
 105458298.909 8  82175337.179 8  20068036.172    20068039.734
  20068039.449          49.200          52.200
 129337874.936 6 100782788.971 6  24612173.398    24612183.484
  24612183.012          38.900          41.100
 126970376.491 7  98937978.533 6  24161661.859    24161667.551
  24161667.457          42.500          39.400
 120071854.569 6  93562525.67644  22848907.172
  22848911.832          41.700          28.600
 126435031.440 7  98520872.211 6  24059792.500    24059799.258
  24059798.191          42.600          40.000
 131473298.183 6 102446740.818 7  25018534.492    25018541.195
  25018541.309          38.700          42.100
 113651673.062 7  88559777.58646  21627186.172
  21627190.656          47.800          37.100
 122047245.792 7  95101862.051 7  23224818.461    23224826.203
  23224826.223          42.700          43.100
 113459822.365 8  88410279.418 7  21590684.297    21590688.496
  21590688.977          49.800          47.600
 21  5 10  0  3 30.0000000  0 10G02G05G06G12G13G15G18G20G25G29
 116305623.977 7  90627806.53246  22132213.820
  22132215.949          47.800          38.400
 105455097.129 8  82172842.271 8  20067426.766    20067429.957
  20067430.051          48.900          52.800
 129417982.403 6 100845210.408 6  24627417.586    24627426.441
  24627425.906          37.000          40.900
 127073017.654 7  99017958.655 6  24181193.547    24181198.215
  24181197.691          43.900          37.600
 119975579.872 7  93487506.48044  22830586.492
  22830591.633          43.000          28.900
 126317680.254 6  98429429.783 6  24037461.086    24037466.730
  24037466.379          41.400          38.800
 131387881.341 6 102380182.251 7  25002281.742    25002287.930
  25002287.305          41.400          42.100
 113585037.268 8  88507853.61346  21614506.422
  21614510.156          48.600          37.900
 122118849.617 7  95157657.235 7  23238444.648    23238451.645
  23238451.719          42.800          42.300
 113389946.391 8  88355830.636 7  21577387.164    21577390.852
  21577391.289          48.500          47.500
 21  5 10  0  4  0.0000000  0 10G02G05G06G12G13G15G18G20G25G29
 116346579.840 8  90659720.18446  22140007.633
  22140008.879          49.100          38.600
 105452370.727 8  82170717.809 8  20066908.023    20066911.379
  20066911.066          50.500          52.100
 129498161.874 6 100907687.845 6  24642675.078    24642684.727
  24642684.133          40.100          40.800
 127175692.264 6  99097964.841 6  24200731.352    24200736.742
  24200735.922          39.300          37.300
 119879537.886 7  93412668.62244  22812310.867
  22812315.223          43.200          28.600
 126200365.607 7  98338015.877 6  24015136.938    24015142.348
  24015141.891          43.300          38.800
 131302452.224 6 102313614.184 6  24986023.367    24986029.891
  24986030.629          37.700          40.200
 113518696.596 7  88456159.59446  21601882.523
  21601886.297          46.900          37.700
 122190778.027 7  95213705.300 7  23252132.320    23252139.781
  23252140.082          43.700          44.500
 113320456.284 8  88301682.472 8  21564164.125    21564167.961
  21564168.203          49.000          48.200
 21  5 10  0  4 30.0000000  0 10G02G05G06G12G13G15G18G20G25G29
 116387714.417 8  90691773.05346  22147835.234
  22147836.816          49.200          38.100
 105450119.462 8  82168963.575 8  20066479.727    20066482.813
  20066482.742          49.900          53.700
 129578413.399 6 100970221.505 6  24657947.258    24657956.840
  24657955.324          38.100          38.600
 127278397.462 6  99177994.709 6  24220275.609    24220281.629
  24220280.352          36.500          38.900
 119783732.208 7  93338014.91444  22794079.047
  22794084.180          44.700          29.400
 126083090.604 6  98246632.862 6  23992819.078    23992825.254
  23992825.133          40.400          38.800
 131217011.505 6 102247036.995 6  24969766.031    24969771.746
  24969771.906          38.100          39.300
 113452651.871 7  88404696.21146  21589314.000
  21589318.148          47.300          37.400
 122263028.181 7  95270004.078 7  23265881.516    23265888.938
  23265888.633          43.900          42.500
 113251354.928 7  88247837.257 7  21551014.133    21551017.863
  21551017.781          47.300          47.000
 21  5 10  0  5  0.0000000  0 10G02G05G06G12G13G15G18G20G25G29
 116429027.524 8  90723965.08946  22155696.977
  22155698.016          48.700          38.500
 105448342.085 8  82167578.628 8  20066141.094    20066144.832
  20066144.988          49.000          53.100
 129658736.642 6 101032811.052 6  24673231.969    24673241.281
  24673239.926          39.000          41.400
 127381129.858 6  99258045.727 6  24239827.164    24239831.668
  24239831.016          41.200          41.700
 119688165.619 7  93263547.48344  22775893.594
  22775898.055          44.100          28.700
 125965858.002 6  98155282.831 6  23970510.789    23970516.887
  23970516.137          39.900          36.100
 131131558.982 6 102180450.751 6  24953504.516    24953510.719
  24953510.863          37.000          40.800
 113386903.120 8  88353463.44046  21576802.797
  21576806.750          48.800          37.700
 122335596.854 7  95326551.066 7  23279690.109    23279697.723
  23279698.266          42.500          44.500
 113182644.432 8  88194296.625 7  21537938.813    21537943.086
  21537942.805          49.000          46.400
 21  5 10  0  5 30.0000000  0 10G02G05G06G12G13G15G18G20G25G29
 116470519.735 8  90756296.63246  22163592.742
  22163593.785          48.500          38.200
 105447037.673 8  82166562.204 8  20065892.945    20065896.148
  20065896.410          49.000          52.800
 129739131.513 5 101095456.368 6  24688531.820    24688540.070
  24688539.055          34.800          39.200
 127483886.693 7  99338115.900 7  24259380.961    24259385.813
  24259385.223          44.700          43.700
 119592841.334 7  93189268.89344  22757753.961
  22757758.887          43.500          29.700
 125848670.560 7  98063967.982 6  23948211.359    23948215.762
  23948215.770          42.100          39.000
 131046095.004 5 102113855.561 6  24937240.242    24937246.926
  24937247.219          33.100          39.700
 113321450.830 7  88302461.68346  21564347.594
  21564351.191          47.000          37.700
 122408480.920 7  95383343.813 7  23293560.117    23293567.676
  23293567.238          42.300          43.300
 113114327.340 7  88141062.517 7  21524938.211    21524942.152
  21524941.348          44.300          45.800
 21  5 10  0  6  0.0000000  0 10G02G05G06G12G13G15G18G20G25G29
 116512191.075 8  90788767.80146  22171522.164
  22171523.664          48.900          37.700
 105446205.519 8  82165913.771 8  20065735.047    20065737.938
  20065738.125          50.500          53.200
 129819598.073 6 101158157.612 6  24703843.203    24703851.652
  24703851.531          38.200          38.700
 127586664.982 7  99418202.841 6  24278938.875    24278944.352
  24278943.516          43.700          40.600
 119497762.832 7  93115181.80244  22739661.461
  22739665.328          45.000          28.600
 125731531.437 6  97972690.778 6  23925920.547    23925926.344
  23925926.430          41.800          41.000
 130960619.942 5 102047251.681 6  24920974.117    24920981.027
  24920981.844          33.700          38.000
 113256295.878 8  88251691.60846  21551949.445
  21551953.348          48.500          36.900
 122481677.553 7  95440380.092 7  23307487.875    23307496.578
  23307496.277          42.600          43.800
 113046406.411 8  88088137.116 7  21512013.586    21512017.906
  21512017.430          48.700          46.200
 21  5 10  0  6 30.0000000  0 10G02G05G06G12G13G15G18G20G25G29
 116554042.268 8  90821379.10146  22179486.320
  22179487.066          49.200          37.400
 105445844.016 8  82165632.083 8  20065666.000    20065669.391
  20065669.438          49.900          52.900
 129900136.002 6 101220914.471 6  24719167.945    24719177.328
  24719175.152          37.000          38.400
 127689461.777 6  99498304.166 6  24298498.789    24298505.078
  24298505.465          40.700          41.200
 119402933.015 7  93041288.50444  22721616.258
  22721619.492          43.700          27.300
 125614443.010 7  97881453.130 6  23903638.648    23903644.828
  23903644.453          42.600          41.600
 130875133.816 6 101980639.102 6  24904708.203    24904712.996
  24904713.723          39.100          37.500
 113191438.416 8  88201153.37446  21539606.938
  21539610.531          48.100          37.300
 122555183.493 7  95497657.437 7  23321476.211    23321484.207
  23321484.211          42.300          43.400
 112978883.779 8  88035522.086 7  21499164.297    21499168.242
  21499167.398          48.100          45.600
 21  5 10  0  7  0.0000000  0 10G02G05G06G12G13G15G18G20G25G29
 116596073.812 8  90854130.91946  22187484.773
  22187485.813          48.000          37.400
 105445953.165 8  82165717.137 8  20065686.648    20065690.258
  20065690.266          50.000          52.900
 129980745.714 6 101283727.228 6  24734509.117    24734518.520
  24734516.551          37.200          39.100
 127792273.894 6  99578417.378 6  24318063.891    24318069.223
  24318069.547          39.600          39.900
 119308355.807 7  92967592.03544  22703617.555
  22703621.914          44.100          28.800
 125497408.477 6  97790257.460 6  23881368.102    23881374.535
  23881374.500          41.500          41.600
 130789637.443 6 101914018.618 6  24888439.359    24888444.668
  24888443.488          36.900          36.400
 113126879.481 8  88150847.71946  21527321.828
  21527325.418          48.600          38.000
 122628996.099 7  95555173.682 7  23335522.289    23335530.727
  23335530.172          43.600          43.700
 112911762.513 8  87983219.784 7  21486391.711    21486395.316
  21486395.082          48.100          46.000
 21  5 10  0  7 30.0000000  0 10G02G05G06G12G13G15G18G20G25G29
 116638285.707 8  90887023.29546  22195516.641
  22195518.484          49.200          37.100
 105446531.256 8  82166167.622 8  20065796.813    20065800.180
  20065800.266          50.000          53.000
 130061426.677 6 101346595.502 6  24749861.164    24749870.141
  24749870.020          38.300          39.300
 127895098.437 6  99658540.336 6  24337630.781    24337636.316
  24337636.441          39.100          40.900
 119214034.274 7  92894094.78244  22685669.656
  22685673.168          45.000          29.300
 125380430.447 6  97699105.865 6  23859107.305    23859113.297
  23859113.410          40.200          40.400
 130704130.720 6 101847390.077 6  24872166.844    24872173.871
  24872172.629          37.100          36.200
 113062619.115 7  88100774.74746  21515093.352
  21515097.031          47.100          37.500
 122703111.966 6  95612926.263 7  23349626.773    23349634.527
  23349634.176          41.800          43.700
 112845044.871 7  87931232.026 7  21473695.422    21473699.445
  21473698.797          47.500          45.200
 21  5 10  0  8  0.0000000  0 10G02G05G06G12G13G15G18G20G25G29
 116680678.586 8  90920056.66446  22203584.125
  22203585.754          48.000          37.500
 105447577.516 8  82166982.885 8  20065995.891    20065999.445
  20065999.207          50.700          52.900
 130142179.005 5 101409519.297 6  24765228.078    24765235.984
  24765235.563          35.800          38.600
 127997932.290 7  99738670.475 7  24357199.852    24357205.418
  24357205.414          42.300          42.500
 119119971.518 7  92820799.19844  22667769.586
  22667773.332          44.100          29.300
 125263511.804 6  97608000.536 6  23836858.078    23836864.508
  23836863.625          38.800          40.200
 130618613.996 5 101780753.762 6  24855894.047    24855900.902
  24855900.344          33.200          37.100
 112998657.913 8  88050934.86746  21502922.117
  21502925.738          48.500          37.300
 122777528.145 6  95670912.831 7  23363787.672    23363795.195
  23363795.047          41.300          44.900
 112778733.298 8  87879560.657 7  21461077.039    21461081.320
  21461081.445          49.100          47.100
 21  5 10  0  8 30.0000000  0 10G02G05G06G12G13G15G18G20G25G29
 116723252.678 8  90953231.26446  22211685.625
  22211687.656          48.900          37.800
 105449091.141 8  82168162.345 8  20066283.195    20066286.984
  20066286.746          48.800          52.300
 130223002.342 6 101472498.577 6  24780608.063    24780617.078
  24780616.051          37.400          40.000
 128100772.471 7  99818805.586 6  24376769.828    24376774.852
  24376775.055          42.300          39.900
 119026170.492 7  92747707.54145  22649920.102
  22649923.898          44.900          30.900
 125146655.360 6  97516943.635 6  23814621.563    23814627.023
  23814626.387          40.900          38.600
 130533087.519 6 101714109.862 6  24839618.781    24839625.313
  24839623.887          36.200          39.900
 112934996.173 7  88001328.37946  21490807.141
  21490810.750          45.200          37.300
 122852241.534 6  95729130.990 7  23378004.758    23378012.520
  23378012.289          40.300          42.800
 112712830.170 7  87828207.574 7  21448536.164    21448540.055
  21448540.254          45.500          47.300
 21  5 10  0  9  0.0000000  0 10G02G05G06G12G13G15G18G20G25G29
 116766008.331 7  90986547.32546  22219821.813
  22219823.141          47.600          36.500
 105451070.766 8  82169704.923 8  20066660.367    20066663.613
  20066663.352          49.300          52.800
 130303896.690 6 101535533.027 6  24796001.109    24796011.395
  24796010.316          38.600          40.200
 128203616.170 6  99898943.461 6  24396339.359    24396346.223
  24396345.438          41.100          38.800
 118932634.601 7  92674822.50345  22632121.211
  22632124.719          44.800          30.200
 125029863.857 6  97425937.327 6  23792396.898    23792401.988
  23792401.871          41.300          40.000
 130447551.289 6 101647458.296 7  24823341.898    24823348.469
  24823348.734          38.100          42.600
 112871634.420 7  87951955.58446  21478750.258
  21478753.621          47.200          38.900
 122927248.805 7  95787578.178 7  23392278.141    23392286.949
  23392285.703          42.200          42.800
 112647338.067 7  87777174.778 7  21436073.406    21436077.332
  21436077.633          47.300          47.000
 21  5 10  0  9 30.0000000  0 10G02G05G06G12G13G15G18G20G25G29
 116808945.862 8  91020005.11746  22227992.773
  22227995.238          49.300          38.100
 105453515.551 8  82171609.966 8  20067125.391    20067128.969
  20067128.742          51.100          52.700
 130384861.931 6 101598622.787 6  24811408.117    24811417.953
  24811417.770          36.300          39.300
 128306460.338 7  99979081.707 6  24415910.742    24415916.145
  24415915.840          42.000          38.200
 118839367.324 7  92602146.88545  22614372.242
  22614376.730          44.900          30.400
 124913140.107 7  97334983.793 6  23770184.906    23770191.000
  23770190.793          42.600          40.700
 130362006.011 5 101580799.608 6  24807063.102    24807068.953
  24807068.988          35.300          38.800
 112808572.810 8  87902816.68346  21466750.281
  21466753.992          49.100          38.500
 123002547.184 7  95846252.160 7  23406607.180    23406615.309
  23406615.047          43.200          43.800
 112582259.233 7  87726464.027 8  21423689.320    21423693.332
  21423693.539          47.200          48.400
 21  5 10  0 10  0.0000000  0 10G02G05G06G12G13G15G18G20G25G29
 116852065.781 8  91053605.04746  22236197.688
  22236199.777          48.200          36.900
 105456424.369 8  82173876.579 8  20067679.023    20067682.781
  20067682.773          50.000          53.000
 130465898.135 6 101661767.878 6  24826830.852    24826839.395
  24826838.086          39.600          38.700
 128409302.214 7 100059218.133 6  24435480.672    24435487.094
  24435487.223          42.500          40.900
 118746371.405 7  92529682.58745  22596675.617
  22596680.035          44.200          30.400
 124796487.149 6  97244085.407 6  23747987.188    23747993.051
  23747992.449          41.700          41.600
 130276451.775 6 101514133.994 6  24790782.953    24790788.039
  24790787.789          37.000          39.600
 112745812.180 8  87853912.32646  21454806.781
  21454810.602          48.700          38.600
 123078133.524 7  95905150.554 7  23420991.125    23420999.000
  23420998.023          44.100          42.000
 112517596.602 7  87676077.586 7  21411384.188    21411388.656
  21411388.590          47.900          47.500
 21  5 10  0 10 30.0000000  0 10G02G05G06G12G13G15G18G20G25G29
 116895368.181 8  91087347.13846  22244437.961
  22244440.883          48.300          37.500
 105459796.040 8  82176503.864 8  20068320.336    20068324.258
  20068324.027          49.600          52.200
 130547004.972 6 101724967.943 6  24842263.141    24842273.680
  24842272.332          37.500          40.400
 128512138.091 7 100139349.892 7  24455049.977    24455056.699
  24455056.594          42.300          42.000
 118653650.280 7  92457432.42545  22579031.117
  22579035.828          43.600          30.700
 124679907.626 6  97153244.355 6  23725802.289    23725807.656
  23725807.914          40.400          40.700
 130190888.933 6 101447461.688 6  24774501.523    24774506.672
  24774506.711          38.700          39.200
 112683352.562 8  87805242.50946  21442921.711
  21442924.570          48.300          38.600
 123154004.473 7  95964270.753 7  23435428.102    23435436.605
  23435435.246          42.100          42.300
 112453352.314 8  87626017.120 8  21399159.016    21399163.133
  21399163.574          48.400          48.500
 21  5 10  0 11  0.0000000  0 10G02G05G06G12G13G15G18G20G25G29
 116938853.569 7  91121231.83546  22252713.430
  22252715.871          47.800          37.500
 105463629.933 8  82179491.310 8  20069050.508    20069053.805
  20069053.863          50.200          53.000
 130628182.268 6 101788222.970 6  24857711.945    24857720.199
  24857719.914          40.000          40.000
 128614965.443 7 100219474.977 6  24474617.422    24474623.758
  24474623.625          42.200          41.800
 118561207.264 7  92385398.94644  22561439.594
  22561443.516          44.300          29.100
 124563404.508 6  97062462.805 6  23703632.086    23703637.801
  23703638.148          41.600          41.800
 130105317.695 6 101380782.798 6  24758217.781    24758222.352
  24758222.695          38.800          38.900
 112621194.575 8  87756807.74946  21431093.227
  21431097.090          48.200          38.700
 123230157.232 6  96023610.518 6  23449920.133    23449926.820
  23449926.488          41.700          41.600
 112389529.089 7  87576284.721 8  21387014.109    21387018.652
  21387018.613          47.500          48.000
 21  5 10  0 11 30.0000000  0 10G02G05G06G12G13G15G18G20G25G29
 116982522.363 8  91155259.42946  22261023.672
  22261025.059          48.000          37.100
 105467924.872 8  82182838.022 8  20069867.805    20069870.746
  20069871.012          49.900          52.600
 130709430.300 6 101851533.188 6  24873172.516    24873181.352
  24873181.023          38.600          39.200
 128717781.688 6 100299591.366 6  24494183.008    24494189.266
  24494188.625          41.400          39.700
 118469045.618 7  92313584.67445  22543902.234
  22543906.262          44.500          30.000
 124446980.896 7  96971743.192 6  23681477.969    23681483.465
  23681483.699          42.700          41.300
 130019738.587 6 101314097.879 6  24741931.969    24741937.691
  24741936.656          38.700          37.700
 112559338.877 8  87708608.51646  21419322.133
  21419325.773          48.300          37.900
 123306588.638 7  96083167.433 6  23464464.758    23464472.473
  23464471.203          43.200          41.100
 112326129.148 7  87526882.178 7  21374949.047    21374953.590
  21374953.652          47.000          47.200
 21  5 10  0 12  0.0000000  0 10G02G05G06G12G13G15G18G20G25G29
 117026375.171 7  91189430.43846  22269368.492
  22269370.754          47.200          37.900
 105472679.383 8  82186542.849 8  20070772.141    20070775.043
  20070775.430          50.200          52.700
 130790748.598 6 101914898.026 6  24888646.891    24888656.930
  24888654.617          40.100          38.100
 128820583.535 6 100379696.575 6  24513745.984    24513751.238
  24513750.934          40.500          39.900
 118377168.545 7  92241992.18344  22526417.977
  22526422.512          42.600          29.200
 124330639.511 7  96881087.626 6  23659338.906    23659343.859
  23659343.922          42.600          40.200
 129934151.730 6 101247406.892 6  24725645.656    24725650.867
  24725650.957          38.900          40.100
 112497785.394 7  87660644.79046  21407608.945
  21407613.129          47.300          37.800
 123383295.455 7  96142938.933 7  23479060.984    23479069.332
  23479068.543          42.200          43.300
 112263154.686 7  87477811.204 7  21362965.539    21362969.227
  21362969.480          47.500          47.900
 21  5 10  0 12 30.0000000  0 10G02G05G06G12G13G15G18G20G25G29
 117070411.879 8  91223744.73846  22277748.445
  22277750.449          48.000          37.600
 105477892.725 7  82190605.186 8  20071764.188    20071767.988
  20071768.070          47.900          53.200
 130872137.197 6 101978317.667 6  24904135.289    24904144.027
  24904142.828          39.600          38.200
 128923368.306 7 100459788.487 6  24533304.734    24533310.914
  24533310.824          44.800          36.200
 118285579.205 7  92170623.91645  22508989.781
  22508993.527          44.100          30.400
 124214383.262 7  96790498.404 6  23637215.828    23637220.922
  23637221.035          43.900          40.900
 129848557.551 6 101180710.145 6  24709356.656    24709362.211
  24709362.555          39.300          40.100
 112436534.502 8  87612916.86646  21395952.930
  21395956.195          48.700          37.600
 123460274.736 6  96202922.677 7  23493709.203    23493718.199
  23493718.129          39.200          43.900
 112200608.520 8  87429073.930 8  21351063.789    21351067.914
  21351067.898          48.400          48.200
 21  5 10  0 13  0.0000000  0 10G02G05G06G12G13G15G18G20G25G29
 117114633.166 7  91258202.85046  22286163.133
  22286164.996          47.100          37.400
 105483563.799 8  82195024.190 8  20072843.844    20072847.129
  20072846.754          49.200          52.800
 130953596.065 6 102041792.093 5  24919635.320    24919644.223
  24919643.223          40.100          35.500
 129026132.687 7 100539864.596 5  24552860.781    24552865.199
  24552865.184          44.600          34.200
 118194280.813 7  92099482.31845  22491616.500
  22491620.074          45.900          31.400
 124098215.073 7  96699977.761 6  23615109.867    23615114.660
  23615114.598          42.600          39.500
 129762956.430 6 101114008.002 6  24693067.797    24693073.348
  24693073.656          38.300          41.700
 112375587.007 8  87565425.32446  21384355.508
  21384359.250          49.700          38.000
 123537523.362 6  96263116.374 7  23508409.523    23508418.492
  23508417.957          40.600          44.000
 112138493.195 7  87380672.394 7  21339243.555    21339247.352
  21339247.438          47.200          47.600
 21  5 10  0 13 30.0000000  0 10G02G05G06G12G13G15G18G20G25G29
 117159039.395 7  91292805.09046  22294614.023
  22294615.598          47.800          37.800
 105489691.783 8  82199799.276 8  20074009.727    20074012.867
  20074012.832          49.500          52.100
 131035124.944 6 102105321.070 6  24935150.703    24935159.730
  24935159.480          38.400          38.800
 129128873.856 7 100619922.768 6  24572412.195    24572418.113
  24572417.055          44.100          36.700
 118103276.640 7  92028570.00045  22474298.992
  22474302.832          45.300          31.100
 123982137.652 6  96609527.875 6  23593020.648    23593026.355
  23593026.082          40.500          39.800
 129677348.604 6 101047300.646 7  24676777.047    24676782.754
  24676783.258          38.900          43.300
 112314943.279 8  87518170.47046  21372815.797
  21372819.074          49.200          38.700
 123615038.152 7  96323517.431 7  23523160.805    23523168.918
  23523168.688          42.100          44.000
 112076811.120 8  87332608.440 7  21327505.539    21327509.422
  21327509.262          48.100          46.800
 21  5 10  0 14  0.0000000  0 10G02G05G06G12G13G15G18G20G25G29
 117203630.880 8  91327551.68546  22303099.141
  22303100.957          48.600          37.900
 105496275.156 8  82204929.174 8  20075262.281    20075266.227
  20075266.145          48.600          52.500
 131116723.920 6 102168904.607 6  24950678.188    24950687.254
  24950686.488          36.200          37.800
 129231589.025 6 100699960.379 6  24591957.813    24591964.090
  24591964.145          39.600          40.600
 118012570.117 7  91957889.66445  22457038.063
  22457042.035          45.700          31.900
 123866154.192 6  96519151.236 6  23570949.023    23570955.820
  23570954.977          40.200          40.500
 129591734.471 6 100980588.441 7  24660483.711    24660491.512
  24660491.590          38.000          43.000
 112254603.606 8  87471152.57446  21361332.852
  21361336.738          48.300          38.500
 123692816.058 7  96384123.584 7  23537961.836    23537969.637
  23537969.738          43.500          43.600
 112015564.571 7  87284883.860 7  21315850.867    21315854.625
  21315854.094          47.500          46.800
 21  5 10  0 14 30.0000000  0 10G02G05G06G12G13G15G18G20G25G29
 117248407.860 7  91362442.82246  22311620.180
  22311621.234          47.200          37.100
 105503311.921 8  82210412.360 8  20076601.570    20076604.941
  20076605.047          49.500          53.100
 131198392.392 6 102232542.393 6  24966219.242    24966228.277
  24966226.980          36.700          37.900
 129334275.358 6 100779975.493 6  24611496.453    24611505.301
  24611504.715          39.400          40.900
 117922163.834 7  91887443.26245  22439833.250
  22439838.449          46.700          31.700
 123750267.024 6  96428849.610 7  23548896.625    23548902.922
  23548902.781          41.800          42.200
 129506114.044 6 100913871.208 7  24644191.484    24644197.574
  24644197.871          38.900          43.200
 112194567.768 8  87424371.41146  21349909.148
  21349911.512          49.100          38.300
 123770853.536 7  96444931.975 7  23552811.711    23552819.418
  23552819.664          45.300          43.800
 111954755.626 8  87237500.260 8  21304279.641    21304283.516
  21304283.660          48.900          48.200
 21  5 10  0 15  0.0000000  0 10G02G05G06G12G13G15G18G20G25G29
 117293370.547 8  91397478.67246  22320176.297
  22320178.336          48.800          38.100
 105510801.809 8  82216248.647 8  20078026.930    20078029.977
  20078029.625          49.100          52.800
 131280130.640 5 102296234.515 5  24981772.594    24981783.492
  24981781.867          34.100          35.800
 129436930.092 7 100859966.033 6  24631032.906    24631039.992
  24631039.371          42.400          39.400
 117832061.301 7  91817233.52445  22422688.680
  22422692.027          46.500          30.900
 123634479.390 7  96338625.564 7  23526863.375    23526869.098
  23526868.922          42.500          42.300
 129420487.898 6 100847149.619 6  24627898.133    24627903.531
  24627903.848          37.200          41.000
 112134836.496 7  87377827.58346  21338542.563
  21338545.656          47.800          37.800
 123849147.810 7  96505940.442 7  23567710.672    23567718.781
  23567718.492          44.300          43.000
 111894387.039 8  87190459.816 8  21292791.547    21292796.207
  21292796.016          48.500          49.000
 21  5 10  0 15 30.0000000  0 10G02G05G06G12G13G15G18G20G25G29
 117338519.425 8  91432659.60946  22328767.563
  22328769.578          48.000          37.100
 105518743.768 8  82222437.179 8  20079538.180    20079541.512
  20079541.375          50.200          52.500
 131361938.488 6 102359980.882 6  24997340.578    24997349.832
  24997350.391          37.300          40.400
 129539549.359 7 100939928.963 5  24650561.328    24650567.328
  24650566.316          42.600          35.800
 117742265.703 7  91747262.96545  22405600.320
  22405603.762          46.400          30.500
 123518794.152 7  96248481.270 6  23504848.836    23504854.941
  23504854.398          43.000          41.700
 129334856.429 6 100780423.810 6  24611602.602    24611608.617
  24611608.020          37.000          40.600
 112075410.326 8  87331521.51446  21327233.898
  21327237.352          48.800          38.400
 123927695.735 7  96567146.561 7  23582657.648    23582665.473
  23582665.488          42.300          42.800
 111834461.003 8  87143764.210 7  21281387.922    21281392.020
  21281391.652          48.700          47.500
 21  5 10  0 16  0.0000000  0 10G02G05G06G12G13G15G18G20G25G29
 117383855.088 8  91467986.05946  22337394.977
  22337396.297          48.100          37.300
 105527136.774 8  82228977.181 8  20081135.477    20081139.070
  20081139.176          49.300          53.200
 131443815.741 5 102423781.279 6  25012921.938    25012931.121
  25012931.406          35.800          38.400
 129642130.997 7 101019862.662 5  24670082.352    24670086.410
  24670086.605          44.600          30.400
 117652780.072 7  91677533.89245  22388572.750
  22388575.313          47.100          31.500
 123403214.156 7  96158418.995 6  23482855.266    23482860.199
  23482860.543          42.300          41.000
 129249219.892 6 100713694.119 6  24595305.336    24595312.133
  24595311.602          37.600          38.900
 112016289.343 8  87285453.25246  21315983.359
  21315987.094          48.000          37.900
 124006494.223 6  96628547.923 6  23597651.852    23597660.207
  23597660.121          41.500          40.400
 111774980.262 8  87097415.594 7  21270069.445    21270072.699
  21270072.848          49.300          47.600
 21  5 10  0 16 30.0000000  0 10G02G05G06G12G13G15G18G20G25G29
 117429377.696 8  91503458.23746  22346057.273
  22346059.492          48.000          37.900
 105535979.146 8  82235867.341 8  20082817.547    20082820.953
  20082820.828          49.000          51.900
 131525762.520 6 102487635.916 6  25028514.969    25028524.742
  25028524.844          37.100          38.100
 129744672.327 7 101099765.130 5  24689594.594    24689600.395
  24689599.250          42.500          32.100
 117563607.708 7  91608048.96945  22371602.648
  22371606.379          45.600          31.200
 123287742.357 6  96068441.030 6  23460880.867    23460886.695
  23460886.188          41.000          40.900
 129163578.802 6 100646960.876 6  24579008.266    24579014.840
  24579014.992          38.600          39.200
 111957474.134 8  87239623.25646  21304791.289
  21304795.105          48.300          39.200
 124085540.033 6  96690142.027 7  23612694.414    23612701.625
  23612702.344          41.300          42.100
 111715947.103 8  87051415.718 8  21258835.523    21258839.141
  21258838.926          48.800          48.300
 21  5 10  0 17  0.0000000  0 10G02G05G06G12G13G15G18G20G25G29
 117475087.817 7  91539076.50446  22354755.883
  22354757.324          47.300          36.500
 105545269.873 8  82243106.881 8  20084585.805    20084589.328
  20084589.168          50.000          51.800
 131607778.660 5 102551544.543 6  25044123.633    25044132.156
  25044132.582          34.700          38.600
 129847170.545 5 101179633.835 6  24709098.352    24709105.832
  24709105.453          35.200          36.500
 117474752.057 7  91538810.81945  22354694.102
  22354697.859          44.900          30.600
 123172381.750 6  95978549.743 6  23438929.328    23438934.078
  23438933.977          40.400          41.600
 129077933.645 5 100580224.403 6  24562711.570    24562717.219
  24562718.086          35.900          40.100
 111898965.022 8  87194031.74346  21293657.867
  21293659.996          48.500          38.400
 124164830.312 7  96751926.615 7  23627782.805    23627791.293
  23627790.762          43.200          42.500
 111657363.992 8  87005766.526 7  21247686.844    21247691.684
  21247691.242          48.600          47.500
 21  5 10  0 17 30.0000000  0 10G02G05G06G12G13G15G18G20G25G29
 117520985.800 8  91574841.11446  22363489.664
  22363492.406          48.200          38.100
 105555007.957 8  82250694.988 8  20086439.305    20086442.648
  20086442.926          50.000          52.900
 131689863.921 6 102615507.051 6  25059743.141    25059753.254
  25059753.344          37.100          40.300
 129949623.027 5 101259466.693 6  24728594.633    24728601.719
  24728600.895          32.900          37.200
 117386216.384 7  91469822.01145  22337846.797
  22337850.781          46.100          31.400
 123057135.001 6  95888747.161 7  23416997.461    23417003.406
  23417003.520          40.400          42.100
 128992284.560 6 100513484.955 6  24546412.531    24546418.508
  24546418.766          36.900          40.100
 111840762.382 8  87148679.05346  21282582.141
  21282584.254          48.900          38.400
 124244361.718 7  96813899.092 7  23642917.719    23642925.031
  23642925.258          43.300          43.700
 111599232.988 7  86960469.664 8  21236625.469    21236630.176
  21236630.191          47.200          48.300
 21  5 10  0 18  0.0000000  0 10G02G05G06G12G13G15G18G20G25G29
 117567071.472 7  91610752.03946  22372259.641
  22372261.465          47.900          36.900
 105565191.458 8  82258630.177 8  20088376.594    20088379.848
  20088379.613          50.000          52.500
 131772017.896 6 102679523.145 6  25075376.711    25075385.879
  25075385.043          38.400          38.900
 130052025.985 6 101339261.066 6  24748082.430    24748088.902
  24748088.297          39.100          40.500
 117298003.105 7  91401084.45845  22321059.922
  22321064.293          43.400          31.000
 122942005.083 6  95799035.575 6  23395089.227    23395095.117
  23395095.582          41.500          41.700
 128906631.741 6 100446742.440 6  24530114.750    24530119.898
  24530120.164          36.500          40.900
 111782865.899 8  87103564.92746  21271564.641
  21271567.730          48.300          39.100
 124324130.799 7  96876056.800 6  23658097.227    23658105.484
  23658104.824          43.900          41.900
 111541556.602 8  86915527.037 8  21225650.477    21225654.121
  21225654.652          48.200          49.000
 21  5 10  0 18 30.0000000  0 10G02G05G06G12G13G15G18G20G25G29
 117613345.683 8  91646809.82346  22381065.164
  22381067.391          48.100          37.300
 105575820.109 8  82266912.252 8  20090399.609    20090402.559
  20090402.352          49.900          51.900
 131854240.952 6 102743593.029 6  25091023.906    25091032.129
  25091032.281          37.700          39.500
 130154376.676 6 101419014.780 6  24767559.633    24767566.023
  24767565.863          41.100          41.300
 117210116.183 7  91332601.14845  22304335.688
  22304339.754          45.600          31.900
 122826995.489 7  95709417.773 7  23373204.328    23373209.844
  23373209.688          42.700          43.000
 128820975.879 6 100379997.580 6  24513815.563    24513819.121
  24513820.066          39.700          40.700
 111725276.434 8  87058690.04046  21260605.516
  21260608.574          49.200          39.400
 124404134.846 7  96938397.525 7  23673321.406    23673328.668
  23673328.391          43.200          42.400
 111484337.213 8  86870940.509 7  21214762.188    21214765.234
  21214765.512          48.600          47.900
 21  5 10  0 19  0.0000000  0 10G02G05G06G12G13G15G18G20G25G29
 117659808.358 7  91683014.51546  22389906.828
  22389908.484          46.900          36.200
 105586892.061 8  82275539.752 8  20092506.078    20092509.730
  20092509.773          49.200          53.000
 131936532.329 6 102807716.153 6  25106683.148    25106692.887
  25106691.758          41.100          36.600
 130256672.655 7 101498725.827 6  24787026.055    24787031.633
  24787032.145          42.000          39.400
 117122558.149 7  91264374.16145  22287673.922
  22287677.824          45.800          32.800
 122712108.366 6  95619895.445 6  23351341.422    23351347.242
  23351347.336          41.000          41.800
 128735316.932 6 100313250.378 6  24497513.555    24497519.133
  24497520.039          38.000          40.800
 111667993.957 7  87014054.36646  21249705.172
  21249708.781          47.600          39.800
 124484370.238 7  97000918.585 7  23688588.688    23688597.410
  23688597.496          42.800          43.700
 111427576.857 8  86826711.646 8  21203960.352    21203964.465
  21203964.227          48.500          48.700
 21  5 10  0 19 30.0000000  0 10G02G05G06G12G13G15G18G20G25G29
 117706460.400 8  91719366.70546  22398784.391
  22398786.328          49.400          37.000
 105598406.677 8  82284512.143 8  20094697.586    20094700.844
  20094700.961          49.300          52.600
 132018892.693 6 102871892.992 6  25122355.469    25122365.508
  25122365.230          39.000          41.000
 130358911.248 6 101578392.147 6  24806481.398    24806486.883
  24806487.391          39.700          36.600
 117035332.699 7  91196406.27745  22271076.000
  22271079.480          46.200          32.300
 122597347.248 6  95530471.233 6  23329502.930    23329508.703
  23329509.020          41.400          41.000
 128649656.010 6 100246501.703 6  24481212.656    24481219.027
  24481218.137          37.400          39.900
 111611019.249 7  86969658.51746  21238862.625
  21238865.684          47.400          38.900
 124564834.428 7  97063617.895 7  23703901.141    23703908.965
  23703908.652          42.200          42.300
 111371278.317 7  86782842.672 8  21193247.500    21193251.609
  21193251.855          47.800          48.600
 21  5 10  0 20  0.0000000  0 10G02G05G06G12G13G15G18G20G25G29
 117753301.461 8  91755866.24346  22407697.844
  22407700.762          48.100          37.100
 105610361.580 8  82293827.653 8  20096972.445    20096975.215
  20096975.246          49.800          51.700
 132101321.130 6 102936122.951 6  25138041.906    25138049.742
  25138048.602          40.300          37.100
 130461089.098 6 101658011.239 6  24825924.461    24825931.266
  24825930.863          36.300          36.200
 116948442.256 7  91128699.47145  22254541.031
  22254544.156          45.800          33.000
 122482714.579 7  95441147.159 6  23307689.102    23307694.949
  23307694.469          42.700          41.100
 128563992.799 6 100179751.151 6  24464912.039    24464917.066
  24464918.219          37.700          41.100
 111554351.815 8  86925502.07146  21228079.414
  21228082.773          48.800          39.600
 124645523.669 6  97126492.532 7  23719255.945    23719264.203
  23719263.867          41.200          42.400
 111315443.477 8  86739335.009 8  21182622.523    21182626.680
  21182626.938          49.500          49.100
 21  5 10  0 20 30.0000000  0 10G02G05G06G12G13G15G18G20G25G29
 117800332.749 7  91792513.95046  22416647.867
  22416649.586          47.300          36.600
 105622756.747 8  82303486.235 8  20099330.766    20099334.363
  20099334.184          49.500          51.700
 132183818.197 6 103000406.394 7  25153740.086    25153749.230
  25153749.645          39.300          42.200
 130563204.037 6 101737581.116 6  24845356.789    24845361.930
  24845363.121          36.500          36.100
 116861890.804 7  91061256.80445  22238070.602
  22238073.844          45.900          32.400
 122368213.567 6  95351925.622 6  23285900.781    23285905.246
  23285905.316          41.500          40.200
 128478328.352 6 100112999.697 6  24448610.445    24448616.234
  24448616.137          38.700          40.600
 111497992.822 8  86881586.03246  21217354.352
  21217358.293          48.100          39.500
 124726435.365 6  97189540.544 6  23734653.008    23734662.020
  23734661.477          41.400          41.900
 111260075.215 8  86696190.915 8  21172085.758    21172090.047
  21172089.855          48.900          48.700
 21  5 10  0 21  0.0000000  0 10G02G05G06G12G13G15G18G20G25G29
 117847553.911 8  91829309.64846  22425633.453
  22425636.180          48.000          36.500
 105635589.993 8  82313486.163 8  20101773.523    20101776.648
  20101776.727          49.300          52.800
 132266383.348 6 103064742.815 6  25169451.117    25169460.930
  25169459.520          38.700          38.700
 130665252.641 6 101817099.460 5  24864776.422    24864781.254
  24864781.398          38.700          34.800
 116775680.944 7  90994080.31745  22221665.508
  22221668.625          46.300          31.400
 122253846.790 7  95262808.737 6  23264136.680    23264142.031
  23264142.402          42.600          41.100
 128392662.516 6 100046247.127 7  24432307.570    24432314.070
  24432314.355          37.700          42.500
 111441942.010 8  86837910.09246  21206688.195
  21206691.621          49.100          39.400
 124807565.930 7  97252759.090 7  23750091.258    23750100.426
  23750100.375          42.300          42.900
 111205175.158 8  86653411.677 7  21161638.625    21161642.266
  21161642.090          49.300          47.600
 21  5 10  0 21 30.0000000  0 10G02G05G06G12G13G15G18G20G25G29
 117894965.595 8  91866253.81146  22434655.906
  22434657.344          48.300          37.100
 105648860.789 8  82323827.014 8  20104298.555    20104302.191
  20104302.234          50.000          53.000
 132349016.468 6 103129132.300 6  25185176.148    25185185.145
  25185183.594          39.200          39.600
 130767232.591 6 101896564.297 6  24884182.977    24884188.207
  24884188.242          38.700          36.400
 116689815.757 7  90927172.38345  22205325.875
  22205329.922          46.200          32.300
 122139617.570 7  95173799.008 7  23242399.875    23242405.324
  23242405.445          42.200          42.400
 128306995.944 6  99979494.016 7  24416007.641    24416012.977
  24416013.184          39.000          43.200
 111386199.935 8  86794474.73646  21196081.719
  21196085.059          48.100          39.800
 124888912.401 7  97316145.920 6  23765571.219    23765580.055
  23765578.914          42.500          40.800
 111150746.060 8  86610999.373 8  21151281.633    21151285.422
  21151285.281          48.400          48.000
 21  5 10  0 22  0.0000000  0 10G02G05G06G12G13G15G18G20G25G29
 117942568.367 7  91903346.85346  22443714.891
  22443717.129          46.800          36.900
 105662567.222 8  82334507.343 8  20106906.664    20106910.344
  20106909.945          49.500          52.300
 132431717.687 6 103193574.856 6  25200914.102    25200922.832
  25200923.059          38.800          39.900
 130869140.755 6 101975973.169 6  24903574.859    24903581.445
  24903581.379          37.900          40.300
 116604298.894 7  90860535.90545  22189052.250
  22189056.867          45.400          32.700
 122025528.762 7  95084898.689 6  23220689.820    23220695.180
  23220695.355          43.800          41.200
 128221329.262 6  99912740.792 7  24399704.992    24399710.285
  24399710.789          40.700          42.000
 111330766.734 8  86751280.05946  21185532.766
  21185535.145          48.400          40.000
 124970471.770 6  97379698.673 6  23781092.219    23781099.980
  23781099.258          41.800          40.300
 111096790.274 8  86568955.907 8  21141014.125    21141018.246
  21141018.082          48.300          48.100
 21  5 10  0 22 30.0000000  0 10G02G05G06G12G13G15G18G20G25G29
 117990362.178 7  91940588.74146  22452809.484
  22452811.336          47.300          36.500
 105676708.144 8  82345526.239 8  20109597.703    20109600.977
  20109600.918          49.200          51.700
 132514486.622 6 103258070.093 6  25216663.773    25216672.340
  25216673.563          39.200          40.800
 130970974.556 6 102055324.099 6  24922953.156    24922959.648
  24922959.848          39.400          40.500
 116519133.123 7  90794172.98045  22172845.820
  22172850.379          45.100          33.100
 121911583.243 7  94996110.029 7  23199006.281    23199012.605
  23199012.738          42.800          43.200
 128135662.559 6  99845987.572 6  24383403.000    24383408.375
  24383409.035          39.300          41.200
 111275642.695 8  86708326.28146  21175042.680
  21175045.980          48.500          39.900
 125052240.751 7  97443414.659 6  23796651.484    23796660.008
  23796659.680          43.200          41.700
 111043309.813 8  86527282.843 8  21130837.109    21130840.453
  21130840.637          48.600          48.200
 21  5 10  0 23  0.0000000  0 10G02G05G06G12G13G15G18G20G25G29
 118038347.394 7  91977979.81446  22461940.641
  22461942.301          47.900          37.300
 105691282.373 8  82356882.788 8  20112370.820    20112374.965
  20112374.871          49.600          52.100
 132597323.021 6 103322618.019 6  25232427.102    25232435.902
  25232435.695          39.000          39.500
 131072731.245 6 102134614.875 6  24942316.039    24942323.988
  24942323.852          37.100          39.500
 116434321.425 7  90728085.96545  22156706.805
  22156710.242          45.900          33.000
 121797783.859 7  94907435.264 7  23177350.094    23177356.531
  23177356.590          43.700          43.200
 128049996.327 6  99779234.764 7  24367101.023    24367106.832
  24367106.875          37.700          42.600
 111220827.794 8  86665613.39046  21164611.969
  21164614.949          49.400          39.600
 125134215.981 7  97507291.426 6  23812251.984    23812259.137
  23812258.930          42.700          40.500
 110990306.959 8  86485981.904 8  21120750.742    21120754.168
  21120754.457          48.500          48.200
 21  5 10  0 23 30.0000000  0 10G02G05G06G12G13G15G18G20G25G29
 118086524.567 8  92015520.43846  22471109.039
  22471110.613          48.000          38.000
 105706288.703 8  82368576.018 8  20115226.523    20115230.883
  20115230.852          49.100          52.700
 132680227.061 6 103387218.493 6  25248202.484    25248212.648
  25248211.566          39.200          40.900
 131174407.992 5 102213843.389 6  24961664.930    24961671.699
  24961671.648          34.400          38.700
 116349867.066 7  90662277.40445  22140635.719
  22140639.496          44.700          32.800
 121684133.676 7  94818876.757 6  23155723.320    23155729.566
  23155729.832          42.100          41.300
 127964331.111 6  99712482.721 7  24350800.102    24350805.125
  24350805.945          38.700          42.700
 111166321.947 8  86623141.33246  21154239.914
  21154242.895          49.100          39.500
 125216394.567 7  97571326.632 6  23827889.305    23827897.664
  23827896.863          42.000          41.400
 110937784.077 8  86445054.976 8  21110756.172    21110759.672
  21110759.727          49.300          48.000
 21  5 10  0 24  0.0000000  0 10G02G05G06G12G13G15G18G20G25G29
 118134893.921 8  92053210.81046  22480312.844
  22480313.938          48.000          36.700
 105721725.696 8  82380604.832 8  20118164.156    20118167.359
  20118167.738          48.900          52.600
 132763198.299 6 103451871.481 6  25263991.180    25264000.711
  25264000.629          40.900          39.700
 131276001.847 5 102293007.339 5  24980998.852    24981004.730
  24981004.723          35.400          35.300
 116265773.096 7  90596749.67545  22124632.773
  22124636.488          46.700          32.300
 121570635.710 6  94730436.855 7  23134125.539    23134131.625
  23134131.715          41.700          42.800
 127878667.327 5  99645731.777 6  24334498.234    24334503.574
  24334503.332          35.800          41.600
 111112126.067 8  86580910.78546  21143926.563
  21143929.668          49.400          40.000
 125298773.196 7  97635517.720 7  23843565.070    23843573.637
  23843573.551          43.000          43.000
 110885743.691 8  86404504.025 8  21100853.563    21100857.277
  21100857.672          48.200          49.000
 21  5 10  0 24 30.0000000  0  9G02G05G12G13G15G18G20G25G29
 118183456.022 7  92091051.37746  22489554.227
  22489556.313          47.000          37.000
 105737592.284 7  82392968.397 8  20121183.109    20121186.824
  20121186.934          47.800          52.300
 131377510.662 6 102372105.019 6  25000314.414    25000320.664
  25000320.816          38.700          36.400
 116182042.896 7  90531505.39545  22108699.508
  22108702.566          45.500          31.500
 121457293.301 7  94642118.154 7  23112557.648    23112562.699
  23112563.281          43.500          42.100
 127793005.658 6  99578982.533 7  24318196.586    24318203.273
  24318203.215          39.300          42.400
 111058240.757 7  86538922.28046  21133672.219
  21133675.703          47.500          40.000
 125381349.158 7  97699862.570 7  23859279.641    23859287.043
  23859286.793          42.500          42.400
 110834187.777 7  86364330.592 8  21091042.422    21091045.996
  21091046.398          46.600          49.200
 21  5 10  0 25  0.0000000  0  9G02G05G12G13G15G18G20G25G29
 118232210.814 7  92129042.09746  22498831.914
  22498833.367          47.300          37.100
 105753886.722 8  82405665.345 8  20124284.328    20124287.625
  20124287.781          48.000          52.500
 131478931.332 6 102451134.091 5  25019614.883    25019619.465
  25019620.008          40.300          33.200
 116098679.421 7  90466546.86445  22092835.883
  22092838.770          45.800          31.900
 121344108.757 7  94553922.424 6  23091020.031    23091024.797
  23091025.500          44.500          41.800
 127707346.319 6  99512235.005 7  24301897.820    24301902.867
  24301902.809          40.900          43.100
 111004665.680 7  86497175.47546  21123477.430
  21123480.746          46.800          40.200
 125464118.911 6  97764358.408 7  23875029.578    23875038.402
  23875038.117          40.800          43.700
 110783118.437 7  86324536.320 8  21081324.016    21081328.277
  21081328.191          45.400          48.500
 21  5 10  0 25 30.0000000  0  9G02G05G12G13G15G18G20G25G29
 118281158.855 7  92167183.42646  22508146.781
  22508148.234          46.900          36.500
 105770607.902 8  82418694.830 8  20127466.750    20127469.516
  20127469.633          49.600          52.100
 131580261.060 6 102530092.393 6  25038898.063    25038902.641
  25038902.000          40.900          38.300
 116015685.345 7  90401876.17945  22077042.438
  22077045.684          45.200          31.000
 121231085.188 7  94465852.154 7  23069512.000    23069516.707
  23069517.051          44.900          43.100
 127621689.802 6  99445489.711 6  24285596.664    24285602.414
  24285602.672          38.100          40.400
 110951400.931 8  86455670.49246  21113341.906
  21113344.879          49.200          40.400
 125547079.387 6  97829002.840 7  23890816.969    23890825.238
  23890824.957          39.900          43.400
 110732537.911 8  86285122.928 8  21071699.234    21071702.973
  21071702.883          48.000          48.400
 21  5 10  0 26  0.0000000  0  9G02G05G12G13G15G18G20G25G29
 118330300.145 7  92205475.30346  22517497.516
