     2.11           OBSERVATION DATA    G (GPS)             RINEX VERSION / TYPE
teqc  2019Feb25     root                20210522 15:21:40UTCPGM / RUN BY / DATE
Linux 2.4.21-27.ELsmp|Opteron|gcc|Linux 64|=+               COMMENT
     2.11           OBSERVATION DATA    M (MIXED)           COMMENT
teqc  2019Feb25     NOAA/NOS/NGS/CORS   20210511 09:36:28UTCCOMMENT
teqc  2020Oct7      UNAVCO Archive Ops  20210511 00:14:50UTCCOMMENT
   0.000      (antenna height)                              COMMENT
 +68.62803447 (latitude)                                    COMMENT
-149.59542496 (longitude)                                   COMMENT
0728.611      (elevation)                                   COMMENT
BIT 2 OF LLI FLAGS DATA COLLECTED UNDER A/S CONDITION       COMMENT
TLK2 (COGO code)                                            COMMENT
RINEX file created by UNAVCO GPS Archive.                   COMMENT
For more information contact archive-gps@unavco.org         COMMENT
Monument ID: 25416                                          COMMENT
UNAVCO 4-char name:   TLK2                                  COMMENT
4-char name from Log or data file: TLK2                     COMMENT
Monument location: 68.628034 -149.595425 728.5926           COMMENT
Visit ID: 123504                                            COMMENT
                                                            COMMENT
Toolik Field Station dry well gps                           COMMENT
                                                            COMMENT
doi:10.7283/1G73-BB74                                       COMMENT
End of DB comments                                          COMMENT
input file: tlk2202105100000b.tgd                           COMMENT
 SNR is mapped to RINEX snr flag value [0-9]                COMMENT
  L1 & L2: min(max(int(snr_dBHz/6), 0), 9)                  COMMENT
teqc.e edited: all SBAS satellites excluded                 COMMENT
teqc.e edited: all QZSS satellites excluded                 COMMENT
TLK2                                                        MARKER NAME
Jason Stuckey       University of Alaska-Fairbanks          OBSERVER / AGENCY
5010K65996          TRIMBLE NETR8       48.01               REC # / TYPE / VERS
1441047119          TRM57971.00     NONE                    ANT # / TYPE
 -2010743.1500 -1179913.5190  5917656.2580                  APPROX POSITION XYZ
        0.0083        0.0000        0.0000                  ANTENNA: DELTA H/E/N
     1     1                                                WAVELENGTH FACT L1/2
     8    L1    L2    C1    C2    P1    P2    S1    S2      # / TYPES OF OBSERV
    30.0000                                                 INTERVAL
teqc.w windowed: start @ 2021 May 10 00:00:00.000           COMMENT
teqc.w windowed:  end  @ 2021 May 11 00:00:00.000           COMMENT
teqc.w edited: all GLONASS satellites excluded              COMMENT
  2021     5    10     0     0    0.0000000     GPS         TIME OF FIRST OBS
                                                            END OF HEADER
 21  5 10  0  0  0.0000000  0 11G02G18G29G31G25G26G04G09G16G05G20
 129739682.468 6 101095865.87444  24688638.289
  24688641.961          40.700          26.500
 119327331.231 7  92982367.623 7  22707233.383    22707238.531
  22707238.516          42.900          45.500
 108153372.107 8  84275381.036 8  20580896.227    20580900.016
  20580900.016          48.100          50.600
 125223094.899 7  97576468.150 6  23829165.328    23829169.266
  23829169.035          42.900          40.500
 126029909.088 6  98205142.912 7  23982694.477    23982702.125
  23982701.574          40.600          43.100
 113101434.609 7  88131037.065 8  21522486.180    21522493.109
  21522493.277          46.700          48.100
 129444279.046 6 100865687.316 6  24632426.344    24632432.145
  24632432.695          40.600          39.300
 125391308.770 7  97707546.381 7  23861172.945    23861180.023
  23861180.422          42.100          42.500
 120768513.577 6  94105358.14544  22981482.000
  22981485.621          41.700          26.800
 116359959.321 7  90670122.067 7  22142560.930    22142564.922
  22142564.848          47.400          45.600
 122596805.157 7  95530007.61044  23329395.180
  23329398.805          42.900          26.500
 21  5 10  0  0 30.0000000  0 11G02G18G29G31G25G26G04G09G16G05G20
 129835512.303 6 101170538.45244  24706874.234
  24706876.586          39.800          24.700
 119225462.268 7  92902989.258 7  22687848.469    22687854.379
  22687854.434          42.400          46.300
 108181026.078 8  84296929.584 8  20586158.273    20586162.504
  20586162.723          48.100          50.500
 125320385.551 7  97652278.997 6  23847679.898    23847683.406
  23847683.109          43.900          40.500
 126148536.136 6  98297579.504 7  24005267.578    24005276.543
  24005276.008          39.700          42.900
 113057950.841 7  88097153.616 8  21514211.344    21514218.012
  21514218.414          46.800          48.300
 129518609.881 6 100923607.493 6  24646570.898    24646576.500
  24646576.957          39.800          36.700
 125418219.914 7  97728516.137 7  23866293.953    23866300.570
  23866300.813          42.000          42.200
 120672760.187 6  94030745.14444  22963259.938
  22963263.492          40.600          27.000
 116310806.097 7  90631820.864 7  22133207.195    22133211.355
  22133211.238          47.000          45.200
 122498887.927 6  95453708.49644  23310761.867
  23310765.871          41.800          27.100
 21  5 10  0  1  0.0000000  0 11G02G18G29G31G25G26G04G09G16G05G20
 129931494.513 6 101245329.66443  24725137.789
  24725141.867          38.600          20.900
 119123882.284 7  92823836.072 7  22668519.188    22668523.531
  22668523.438          43.000          45.700
 108209220.716 7  84318899.422 8  20591523.781    20591527.637
  20591527.461          47.400          49.700
 125417960.582 7  97728311.508 6  23866246.195    23866251.430
  23866250.691          42.200          40.400
 126267304.523 6  98390126.206 7  24027868.266    24027877.059
  24027876.570          37.600          42.600
 113015020.116 7  88063701.111 7  21506042.156    21506048.965
  21506049.219          47.500          47.900
 129593357.642 6 100981852.501 5  24660795.117    24660799.828
  24660799.996          40.600          35.400
 125445732.319 6  97749954.395 7  23871529.070    23871536.414
  23871536.414          40.300          42.800
 120577368.306 7  93956413.83644  22945108.203
  22945111.543          42.100          27.200
 116262248.732 7  90593983.958 7  22123966.984    22123971.309
  22123971.414          45.400          45.500
 122401251.756 7  95377628.44344  23292182.797
  23292186.531          42.400          26.700
 21  5 10  0  1 30.0000000  0 11G02G18G29G31G25G26G04G09G16G05G20
 130027627.067 6 101320238.08144  24743431.219
  24743436.066          40.200          24.700
 119022593.146 7  92744909.527 7  22649244.250    22649248.906
  22649248.719          43.800          45.000
 108237954.755 7  84341289.579 8  20596991.734    20596995.996
  20596996.121          47.200          50.800
 125515816.888 7  97804563.081 7  23884868.117    23884873.336
  23884872.891          43.000          42.000
 126386211.419 6  98482780.829 6  24050495.445    24050504.590
  24050503.969          37.700          39.900
 112972643.597 7  88030680.446 8  21497977.953    21497984.594
  21497984.898          47.100          48.600
 129668519.289 6 101040420.038 6  24675098.078    24675103.480
  24675103.238          41.400          36.100
 125473844.494 6  97771860.003 7  23876878.563    23876886.328
  23876886.566          39.900          42.600
 120482340.112 7  93882365.91145  22927024.859
  22927028.441          42.100          30.000
 116214288.627 7  90556612.470 7  22114840.250    22114844.793
  22114844.797          46.900          46.300
 122303898.929 6  95301769.16144  23273656.664
  23273660.766          40.900          27.400
 21  5 10  0  2  0.0000000  0 11G02G18G29G31G25G26G04G09G16G05G20
 130123908.493 6 101395262.54844  24761753.086
  24761757.648          40.900          24.300
 118921597.547 7  92666211.690 7  22630024.969    22630030.375
  22630030.516          44.100          46.300
 108267228.157 7  84364100.018 8  20602562.117    20602566.086
  20602566.184          47.100          50.300
 125613952.070 7  97881031.957 6  23903542.672    23903547.297
  23903547.281          42.900          40.800
 126505255.070 6  98575542.051 6  24073149.461    24073156.984
  24073156.520          38.000          38.400
 112930823.234 7  87998093.159 8  21490019.781    21490026.406
  21490026.852          47.300          48.700
 129744092.723 6 101099308.487 5  24689478.664    24689485.637
  24689484.770          40.400          33.800
 125502555.782 6  97794232.405 7  23882342.914    23882349.656
  23882349.711          40.500          42.100
 120387678.701 7  93808603.84044  22909011.016
  22909014.766          42.700          29.000
 116166927.953 7  90519708.069 7  22105828.070    22105832.285
  22105832.230          45.800          45.300
 122206832.530 7  95226133.05944  23255185.258
  23255189.113          43.200          26.100
 21  5 10  0  2 30.0000000  0 11G02G18G29G31G25G26G04G09G16G05G20
 130220336.565 6 101470401.23643  24780104.070
  24780106.512          40.300          22.300
 118820897.357 7  92587744.056 7  22610862.609    22610867.316
  22610867.316          44.600          45.700
 108297039.451 7  84387329.590 8  20608234.984    20608239.379
  20608239.121          47.200          50.500
 125712362.877 6  97957715.701 6  23922269.531    23922275.090
  23922274.371          40.500          41.700
 126624432.711 6  98668407.708 6  24095828.672    24095835.578
  24095835.602          39.300          37.900
 112889560.122 7  87965940.095 8  21482167.719    21482174.699
  21482174.988          47.000          48.300
 129820074.942 6 101158515.388 6  24703938.031    24703944.094
  24703943.742          37.700          36.900
 125531864.762 6  97817070.537 7  23887919.625    23887926.840
  23887926.707          40.900          43.400
 120293386.290 7  93735129.25044  22891068.273
  22891071.664          43.100          27.800
 116120168.135 7  90483271.858 7  22096929.852    22096934.461
  22096934.680          45.500          45.200
 122110055.145 7  95150722.16644  23236769.586
  23236773.414          42.600          27.600
 21  5 10  0  3  0.0000000  0 11G02G18G29G31G25G26G04G09G16G05G20
 130316909.595 6 101545652.79544  24798481.656
  24798484.453          40.600          24.700
 118720494.775 7  92509508.333 7  22591756.992    22591761.652
  22591761.898          43.300          46.500
 108327387.861 7  84410977.694 8  20614009.664    20614013.398
  20614013.680          47.400          49.500
 125811046.532 6  98034611.997 6  23941049.461    23941053.590
  23941053.500          41.500          40.400
 126743742.059 6  98761376.021 6  24118532.328    24118539.801
  24118539.688          39.900          37.900
 112848855.760 7  87934222.408 8  21474422.102    21474428.762
  21474428.852          47.700          48.400
 129896463.246 6 101218038.699 6  24718474.000    24718479.824
  24718479.680          37.100          38.300
 125561770.145 6  97840373.359 7  23893610.797    23893617.570
  23893617.496          40.700          42.600
 120199465.775 7  93661944.45744  22873195.570
  22873199.324          42.200          29.300
 116074011.122 7  90447305.355 7  22088146.797    22088150.121
  22088150.277          46.000          45.200
 122013569.435 7  95075538.53944  23218408.805
  23218412.594          43.400          29.000
 21  5 10  0  3 30.0000000  0 11G02G18G29G31G25G26G04G09G16G05G20
 130413625.938 7 101621016.12844  24816886.531
  24816888.418          42.600          25.400
 118620392.059 7  92431506.268 7  22572707.320    22572712.863
  22572713.305          44.600          47.000
 108358272.635 8  84435043.747 8  20619887.625    20619891.590
  20619891.535          48.000          49.800
 125909999.870 6  98111718.456 6  23959878.641    23959883.828
  23959883.730          40.400          41.300
 126863180.795 6  98854445.125 6  24141260.977    24141268.750
  24141268.113          39.900          40.200
 112808711.645 7  87902941.283 8  21466782.625    21466789.637
  21466789.898          47.300          48.200
 129973255.034 5 101277876.463 6  24733086.969    24733093.121
  24733093.117          34.100          40.200
 125592270.971 6  97864140.232 7  23899415.258    23899421.875
  23899421.797          41.600          44.000
 120105919.520 7  93589051.29644  22855394.234
  22855397.512          42.600          28.900
 116028458.418 7  90411809.760 7  22079478.477    22079482.137
  22079482.164          45.800          45.200
 121917378.159 7  95000584.30744  23200104.672
  23200107.852          44.500          27.800
 21  5 10  0  4  0.0000000  0 11G02G18G29G31G25G26G04G09G16G05G20
 130510483.465 7 101696489.46744  24835318.117
  24835319.691          42.600          26.000
 118520591.436 7  92353739.597 7  22553716.242    22553721.176
  22553721.063          45.000          46.700
 108389693.065 8  84459527.203 8  20625866.547    20625870.336
  20625870.246          49.000          49.600
 126009220.170 7  98189032.884 6  23978759.664    23978765.008
  23978764.543          42.500          40.100
 126982746.786 6  98947613.359 6  24164012.766    24164021.797
  24164021.273          39.400          41.900
 112769129.168 7  87872097.807 8  21459250.477    21459257.262
  21459257.543          47.300          48.100
 130050447.643 5 101338026.492 6  24747775.086    24747783.000
  24747783.039          32.600          40.500
 125623365.950 6  97888370.077 7  23905332.117    23905338.813
  23905339.156          41.700          43.000
 120012750.195 7  93516451.85544  22837664.539
  22837668.188          42.600          27.800
 115983511.738 7  90376786.372 7  22070925.047    22070929.078
  22070929.145          46.300          45.200
 121821484.027 7  94925861.65644  23181855.883
  23181859.859          43.500          27.900
 21  5 10  0  4 30.0000000  0 11G02G18G29G31G25G26G04G09G16G05G20
 130607480.930 7 101772071.72244  24853776.734
  24853779.152          42.900          24.600
 118421095.360 7  92276210.244 7  22534782.891    22534787.590
  22534787.801          44.300          46.600
 108421648.477 8  84484427.521 8  20631947.719    20631951.723
  20631951.707          48.200          50.200
 126108704.700 7  98266553.237 6  23997692.086    23997696.500
  23997695.809          43.000          41.800
 127102437.754 6  99040878.959 6  24186789.813    24186798.441
  24186797.832          38.300          41.600
 112730110.018 8  87841693.281 8  21451825.258    21451832.180
  21451832.559          48.000          48.000
 130128038.494 5 101398486.864 7  24762540.703    24762547.566
  24762547.629          35.000          43.200
 125655054.072 7  97913062.073 7  23911363.227    23911369.293
  23911369.340          42.000          42.200
 119919960.454 6  93444148.19844  22820006.578
  22820010.098          41.800          26.300
 115939173.273 7  90342236.914 7  22062487.938    22062492.074
  22062491.719          46.300          44.500
 121725889.841 7  94851372.71044  23163665.219
  23163668.707          43.000          27.500
 21  5 10  0  5  0.0000000  0 10G02G18G29G31G25G26G09G16G05G20
 130704616.402 6 101847761.69144  24872259.313
  24872263.699          41.100          27.100
 118321905.696 7  92198919.648 7  22515907.844    22515912.781
  22515913.113          44.500          47.200
 108454137.685 8  84509743.774 8  20638130.266    20638133.883
  20638133.859          48.300          50.400
 126208450.462 7  98344277.169 6  24016673.016    24016677.176
  24016676.875          43.300          40.600
 127222251.141 6  99134239.946 7  24209588.734    24209597.723
  24209597.875          37.100          42.100
 112691655.277 8  87811728.542 8  21444507.773    21444514.461
  21444514.488          48.100          48.600
 125687333.816 6  97938215.092 7  23917505.070    23917511.457
  23917511.559          41.400          43.900
 119827553.040 7  93372142.43944  22802422.305
  22802426.520          42.900          28.500
 115895444.299 7  90308162.401 7  22054166.594    22054170.371
  22054170.250          47.200          44.800
 121630597.797 7  94777119.22144  23145531.305
  23145534.629          42.400          25.600
 21  5 10  0  5 30.0000000  0 10G02G18G29G31G25G26G09G16G05G20
 130801888.113 6 101923557.81443  24890769.281
  24890772.953          39.200          22.800
 118223024.821 7  92121869.640 7  22497090.977    22497095.652
  22497095.668          43.800          46.600
 108487159.940 8  84535475.399 8  20644413.664    20644417.957
  20644417.941          49.000          50.000
 126308454.872 6  98422202.607 6  24035703.023    24035707.367
  24035706.953          41.600          39.800
 127342184.869 6  99227694.677 6  24232411.883    24232420.461
  24232419.984          36.800          41.300
 112653766.446 7  87782204.781 8  21437297.648    21437304.309
  21437304.805          47.300          48.900
 125720204.115 7  97963828.325 7  23923759.984    23923766.762
  23923766.625          42.200          42.700
 119735530.665 7  93300436.72744  22784911.492
  22784915.164          42.900          28.300
 115852326.690 7  90274564.264 7  22045961.727    22045965.281
  22045965.203          46.700          44.900
 121535610.908 7  94703103.49544  23127456.008
  23127459.461          42.200          27.900
 21  5 10  0  6  0.0000000  0 10G02G18G29G31G25G26G09G16G05G20
 130899293.847 6 101999458.30543  24909304.461
  24909309.637          39.000          22.900
 118124454.824 7  92045061.895 7  22478333.492    22478338.801
  22478338.859          44.000          46.100
 108520714.287 8  84561621.638 8  20650799.086    20650803.359
  20650803.266          48.700          50.300
 126408715.133 7  98500327.429 6  24054782.414    24054786.445
  24054785.930          42.700          41.300
 127462236.431 6  99321241.277 6  24255257.117    24255265.305
  24255265.184          37.100          40.400
 112616444.867 7  87753123.032 8  21430195.672    21430202.496
  21430202.457          47.200          48.800
 125753663.444 7  97989900.484 6  23930127.477    23930133.762
  23930134.063          42.000          41.800
 119643895.388 7  93229032.64844  22767473.977
  22767477.727          42.900          29.100
 115809821.978 7  90241443.715 7  22037872.766    22037876.695
  22037876.598          46.400          44.500
 121440931.766 7  94629327.57944  23109439.406
  23109442.797          42.200          27.300
 21  5 10  0  6 30.0000000  0 10G02G18G29G31G25G26G09G16G05G20
 130996832.434 6 102075462.31444  24927866.523
  24927870.457          41.400          26.700
 118026198.062 7  91968498.224 7  22459635.883    22459641.270
  22459641.250          44.100          47.000
 108554799.844 8  84588181.806 8  20657285.539    20657289.535
  20657289.398          48.600          50.600
 126509228.002 7  98578649.087 6  24073907.789    24073913.539
  24073913.012          42.300          41.800
 127582403.715 6  99414878.038 6  24278124.875    24278132.102
  24278132.168          38.800          38.900
 112579691.900 7  87724484.359 8  21423201.750    21423208.973
  21423209.309          46.800          49.300
 125787710.781 6  98016430.887 7  23936606.461    23936612.625
  23936613.102          41.600          42.800
 119552650.207 7  93157932.54744  22750110.297
  22750114.098          43.100          28.600
 115767931.488 7  90208801.779 7  22029901.406    22029905.555
  22029905.379          45.800          44.900
 121346563.209 6  94555793.67644  23091481.766
  23091484.961          41.700          26.200
 21  5 10  0  7  0.0000000  0 10G02G18G29G31G25G26G09G16G05G20
 131094501.659 6 102151568.11244  24946453.070
  24946455.281          41.200          26.000
 117928256.323 7  91892180.028 7  22440998.055    22441003.098
  22441002.891          44.100          46.400
 108589415.419 8  84615154.979 8  20663872.328    20663876.434
  20663876.359          48.400          50.000
 126609990.496 7  98657165.230 6  24093083.789    24093088.109
  24093087.844          43.200          41.300
 127702684.010 6  99508602.923 6  24301014.203    24301020.445
  24301019.961          39.200          37.700
 112543508.626 7  87696289.610 8  21416316.328    21416323.242
  21416323.379          46.800          49.000
 125822344.301 6  98043418.023 7  23943196.141    23943203.652
  23943203.730          40.000          42.500
 119461797.540 7  93087138.28244  22732821.609
  22732825.719          42.100          28.700
 115726656.931 7  90176639.788 7  22022047.063    22022051.188
  22022050.879          46.500          45.200
 121252507.576 6  94482503.62244  23073582.609
  23073586.438          41.200          26.500
 21  5 10  0  7 30.0000000  0 10G02G18G29G31G25G26G09G16G05G20
 131192299.987 6 102227774.49544  24965063.977
  24965067.918          41.400          26.200
 117830631.941 7  91816109.122 7  22422421.195    22422425.953
  22422426.277          44.400          47.200
 108624560.344 8  84642540.634 8  20670560.742    20670564.473
  20670564.473          48.700          49.700
 126710999.600 7  98735873.591 6  24112305.203    24112309.387
  24112309.305          43.300          41.400
 127823075.211 6  99602414.225 6  24323922.625    24323930.406
  24323929.855          39.800          37.600
 112507896.449 7  87668539.867 8  21409539.820    21409546.504
  21409546.637          46.400          49.000
 125857562.864 6  98070861.042 6  23949897.813    23949905.168
  23949905.484          39.500          41.300
 119371340.238 7  93016652.09044  22715608.891
  22715611.852          44.000          29.900
 115685999.679 7  90144958.810 7  22014310.422    22014314.285
  22014314.246          46.400          44.700
 121158767.680 7  94409459.61144  23055745.102
  23055748.617          42.100          25.500
 21  5 10  0  8  0.0000000  0 10G02G18G29G31G25G26G09G16G05G20
 131290225.855 6 102304080.36843  24983698.242
  24983701.074          38.600          23.500
 117733327.620 7  91740287.623 7  22403904.383    22403909.930
  22403909.762          43.900          46.900
 108660233.946 8  84670338.242 8  20677348.867    20677352.777
  20677352.660          48.800          50.000
 126812253.172 7  98814772.431 6  24131572.977    24131577.359
  24131577.563          42.700          40.300
 127943575.515 6  99696310.515 6  24346853.547    24346861.422
  24346860.703          39.100          39.500
 112472857.158 7  87641236.527 8  21402871.898    21402878.980
  21402879.023          46.400          48.100
 125893365.574 6  98098759.224 6  23956710.578    23956718.148
  23956718.250          38.300          41.200
 119281280.881 7  92946475.99344  22698470.844
  22698474.422          44.100          29.600
 115645961.769 7  90113760.436 7  22006691.672    22006695.816
  22006696.004          46.700          45.800
 121065346.670 7  94336664.04844  23037967.188
  23037970.691          42.500          27.600
 21  5 10  0  8 30.0000000  0 10G02G18G29G31G25G26G09G16G05G20
 131388276.903 6 102380483.70943  25002354.852
  25002359.590          38.000          21.800
 117636344.806 7  91664716.637 7  22385449.648    22385454.461
  22385454.656          44.000          47.300
 108696434.536 8  84698546.480 8  20684237.438    20684241.477
  20684241.691          49.200          50.200
 126913747.821 7  98893859.133 6  24150886.758    24150891.176
  24150891.113          42.600          41.000
 128064181.887 6  99790289.445 6  24369803.836    24369812.246
  24369811.363          38.600          39.800
 112438391.291 7  87614380.021 8  21396312.906    21396319.691
  21396319.883          46.200          48.300
 125929750.193 6  98127110.831 6  23963635.648    23963642.293
  23963642.156          39.300          41.700
 119191621.373 7  92876611.44144  22681408.805
  22681411.934          42.900          27.800
 115606544.269 7  90083045.508 7  21999190.422    21999195.082
  21999195.301          46.700          45.400
 120972246.461 7  94264118.46344  23020251.438
  23020254.684          43.300          28.500
 21  5 10  0  9  0.0000000  0 10G02G18G29G31G25G26G09G16G05G20
 131486452.146 6 102456983.82243  25021038.172
  25021041.430          40.200          22.300
 117539686.155 7  91589398.241 7  22367055.953    22367060.988
  22367061.285          43.400          47.600
 108733161.884 8  84727165.186 8  20691226.695    20691230.391
  20691230.418          48.200          50.700
 127015481.087 6  98973131.691 6  24170245.289    24170250.430
  24170250.523          40.400          39.900
 128184892.532 6  99884349.594 6  24392774.273    24392783.316
  24392782.973          38.400          41.400
 112404500.663 7  87587971.736 8  21389863.805    21389870.559
  21389870.586          46.400          48.500
 125966715.888 6  98155915.300 6  23970669.625    23970676.141
  23970676.098          41.300          41.300
 119102364.985 6  92807061.04644  22664423.609
  22664427.715          41.700          29.000
 115567749.047 7  90052815.474 7  21991808.336    21991811.992
  21991812.227          46.300          45.700
 120879470.346 7  94191825.43044  23002596.039
  23002600.129          43.200          28.700
 21  5 10  0  9 30.0000000  0 10G02G18G29G31G25G26G09G16G05G20
 131584749.319 6 102533578.92943  25039744.211
  25039746.723          41.600          21.700
 117443353.699 7  91514334.025 7  22348724.391    22348729.270
  22348729.527          42.900          46.700
 108770414.447 8  84756193.160 8  20698315.672    20698319.496
  20698319.484          48.700          50.300
 127117449.628 6  99052587.659 6  24189648.813    24189653.984
  24189654.184          40.200          38.200
 128305705.074 6  99978489.149 6  24415764.594    24415772.898
  24415772.707          38.000          41.400
 112371186.293 7  87562012.497 8  21383524.320    21383530.965
  21383531.211          46.300          48.700
 126004261.054 6  98185171.257 6  23977813.898    23977820.789
  23977821.172          39.900          40.400
 119013514.196 7  92737826.68344  22647516.117
  22647519.984          42.300          28.500
 115529577.303 7  90023071.266 7  21984544.570    21984548.645
  21984548.664          47.200          46.400
 120787020.446 7  94119786.58044  22985003.969
  22985007.234          42.900          28.800
 21  5 10  0 10  0.0000000  0 10G02G18G29G31G25G26G09G16G05G20
 131683166.786 6 102610267.75743  25058472.719
  25058475.254          41.600          22.500
 117347349.544 7  91439525.652 7  22330455.086    22330459.895
  22330460.672          43.100          47.300
 108808191.531 8  84785629.842 8  20705504.000    20705507.961
  20705508.090          48.800          50.000
 127219650.660 6  99132224.782 6  24209097.047    24209102.320
  24209102.148          41.600          40.200
 128426617.086 6 100072706.216 6  24438773.211    24438781.852
  24438781.398          37.900          40.000
 112338449.397 7  87536503.234 8  21377295.016    21377302.055
  21377302.023          47.000          48.600
 126042384.161 6  98214877.580 6  23985068.781    23985074.875
  23985074.758          40.400          39.000
 118925071.488 7  92668910.33144  22630685.320
  22630689.762          42.600          28.100
 115492030.324 7  89993813.891 7  21977399.086    21977403.320
  21977403.508          46.700          46.000
 120694899.695 7  94048004.21444  22967474.117
  22967477.637          42.800          28.600
 21  5 10  0 10 30.0000000  0 10G02G18G29G31G25G26G09G16G05G20
 131781702.764 6 102687049.04643  25077222.984
  25077225.762          40.300          23.000
 117251675.860 7  91364974.774 7  22312248.773    22312254.094
  22312254.813          43.700          47.200
 108846492.108 8  84815474.440 8  20712792.438    20712796.367
  20712796.473          48.600          49.500
 127322081.508 6  99212040.923 6  24228589.641    24228594.301
  24228594.145          40.300          38.900
 128547626.293 6 100166999.037 6  24461800.781    24461809.414
  24461808.777          37.500          39.900
 112306291.154 7  87511444.867 8  21371175.289    21371182.488
  21371182.480          47.000          49.000
 126081083.750 7  98245033.045 6  23992433.938    23992439.156
  23992439.551          42.500          38.500
 118837039.562 7  92600314.04744  22613934.336
  22613937.734          42.600          28.700
 115455109.648 7  89965044.533 7  21970373.758    21970377.988
  21970378.020          46.600          45.600
 120603110.551 7  93976480.25844  22950006.000
  22950010.227          42.300          27.300
 21  5 10  0 11  0.0000000  0 10G02G18G29G31G25G26G09G16G05G20
 131880355.705 6 102763921.35643  25095996.367
  25095998.824          40.700          20.600
 117156335.089 7  91290683.277 7  22294106.586    22294111.457
  22294111.371          44.400          46.900
 108885315.438 8  84845726.376 8  20720180.531    20720184.207
  20720184.246          48.300          49.600
 127424739.096 7  99292033.838 6  24248125.109    24248129.695
  24248129.770          42.600          38.600
 128668730.745 5 100261366.051 6  24484845.953    24484855.074
  24484854.473          35.800          40.000
 112274713.068 7  87486838.568 8  21365166.117    21365172.961
  21365173.262          47.200          49.100
 126120358.462 6  98275636.723 6  23999906.664    23999913.262
  23999913.258          41.500          39.900
 118749421.011 7  92532039.87244  22597260.953
  22597264.434          44.100          29.800
 115418817.163 7  89936764.687 7  21963467.227    21963471.500
  21963471.645          46.500          46.700
 120511656.024 7  93905217.03944  22932603.234
  22932606.922          42.500          28.000
 21  5 10  0 11 30.0000000  0 10G02G18G29G31G25G26G09G16G05G20
 131979123.617 6 102840883.22944  25114791.773
  25114795.762          41.600          25.700
 117061329.001 7  91216652.600 7  22276027.164    22276032.227
  22276031.898          43.900          46.600
 108924659.852 8  84876384.361 8  20727667.578    20727671.246
  20727671.375          48.200          49.800
 127527620.570 7  99372201.190 6  24267703.203    24267707.820
  24267707.316          44.000          40.900
 128789927.763 6 100355805.207 6  24507909.086    24507917.785
  24507917.336          36.100          40.100
 112243715.844 7  87462684.902 8  21359267.672    21359274.371
  21359274.793          45.900          49.000
 126160206.504 6  98306687.172 6  24007489.930    24007496.781
  24007497.086          40.200          40.100
 118662218.101 7  92464089.57044  22580666.633
  22580670.188          44.500          29.800
 115383153.764 7  89908975.032 7  21956681.141    21956685.387
  21956685.461          46.900          46.400
 120420538.469 6  93834216.39244  22915264.188
  22915267.895          41.800          26.800
 21  5 10  0 12  0.0000000  0 10G02G18G29G31G25G26G09G16G05G20
 132078005.507 6 102917934.00343  25133607.023
  25133610.980          37.500          21.700
 116966660.138 7  91142884.707 7  22258012.445    22258016.719
  22258016.844          43.400          46.700
 108964524.662 8  84907447.853 8  20735253.414    20735257.371
  20735257.434          49.000          49.100
 127630723.554 7  99452541.072 7  24287323.617    24287328.273
  24287327.789          42.400          42.100
 128911215.461 6 100450315.012 6  24530989.438    24530997.895
  24530997.398          37.100          39.900
 112213301.107 7  87438985.117 8  21353479.383    21353486.551
  21353486.711          46.500          49.000
 126200626.627 7  98338183.348 6  24015182.539    24015187.672
  24015187.801          42.500          39.500
 118575433.788 7  92396465.45145  22564151.984
  22564155.949          43.600          30.800
 115348120.899 7  89881676.700 7  21950014.195    21950018.559
  21950018.371          46.500          46.300
 120329760.745 7  93763480.54844  22897988.984
  22897993.301          42.400          29.400
 21  5 10  0 12 30.0000000  0 10G02G18G29G31G25G26G09G16G05G20
 132176998.915 6 102995071.58743  25152444.945
  25152449.586          37.700          21.500
 116872330.639 7  91069381.226 7  22240061.547    22240066.891
  22240066.848          43.400          47.300
 109004908.975 7  84938916.141 8  20742938.367    20742942.258
  20742942.117          47.500          49.300
 127734044.865 6  99533051.120 6  24306984.250    24306989.352
  24306989.285          41.000          41.400
 129032591.563 6 100544893.720 6  24554086.688    24554094.781
  24554094.738          38.400          40.000
 112183469.960 7  87415740.079 8  21347803.297    21347809.789
  21347810.020          47.000          48.800
 126241617.365 6  98370124.208 6  24022980.961    24022988.000
  24022988.473          39.400          40.800
 118489070.662 7  92329169.52045  22547718.031
  22547721.039          45.100          31.000
 115313720.163 7  89854870.942 7  21943468.086    21943472.027
  21943472.156          45.300          46.400
 120239325.284 7  93693011.38444  22880780.797
  22880784.422          42.600          28.200
 21  5 10  0 13  0.0000000  0 10G02G18G29G31G25G26G09G16G05G20
 132276102.497 6 103072295.10844  25171305.094
  25171308.184          41.800          25.300
 116778342.411 7  90996143.692 7  22222176.336    22222181.871
  22222181.453          44.000          47.100
 109045811.572 8  84970788.289 8  20750721.656    20750725.949
  20750726.090          48.500          49.600
 127837581.672 6  99613729.108 6  24326686.477    24326691.645
  24326691.273          41.100          40.500
 129154053.553 6 100639539.355 6  24577200.102    24577208.391
  24577208.336          39.800          40.400
 112154223.262 7  87392950.451 8  21342237.820    21342244.496
  21342244.922          46.500          48.500
 126283176.814 6  98402508.164 6  24030890.320    24030896.137
  24030896.551          39.600          39.900
 118403131.146 7  92262203.70745  22531363.766
  22531367.398          44.000          30.400
 115279952.477 7  89828558.471 7  21937042.078    21937046.504
  21937046.254          46.100          46.300
 120149234.808 7  93622811.05644  22863636.914
  22863640.625          42.600          28.500
 21  5 10  0 13 30.0000000  0 10G02G18G29G31G25G26G09G16G05G20
 132375314.263 6 103149602.79743  25190184.039
  25190187.844          40.200          23.500
 116684697.434 7  90923173.648 7  22204356.305    22204361.598
  22204361.188          44.300          47.200
 109087231.250 8  85003063.358 8  20758603.805    20758607.441
  20758607.770          48.800          49.600
 127941330.764 6  99694572.484 6  24346429.047    24346434.152
  24346434.605          40.400          40.000
 129275599.018 6 100734250.041 6  24600329.477    24600338.184
  24600337.828          39.600          39.900
 112125561.994 7  87370617.003 8  21336783.547    21336790.367
  21336790.676          46.800          49.100
 126325303.237 6  98435333.937 6  24038905.570    24038913.441
  24038913.645          38.600          41.100
 118317617.505 7  92195569.72545  22515091.242
  22515095.094          44.100          31.000
 115246819.442 7  89802740.519 7  21930737.289    21930741.566
  21930741.270          46.600          46.800
 120059491.879 7  93552881.54244  22846559.422
  22846562.941          42.800          28.400
 21  5 10  0 14  0.0000000  0 10G02G18G29G31G25G26G09G16G05G20
 132474632.599 6 103226993.70443  25209082.734
  25209087.078          37.300          20.600
 116591398.113 7  90850472.925 7  22186602.063    22186607.289
  22186607.242          44.000          47.300
 109129166.993 8  85035740.557 8  20766583.867    20766587.910
  20766588.004          48.500          49.500
 128045289.591 6  99775579.249 6  24366211.875    24366217.098
  24366216.902          39.500          39.400
 129397226.053 6 100829024.303 6  24623474.070    24623482.840
  24623482.750          36.400          39.000
 112097487.496 7  87348740.766 8  21331441.375    21331447.867
  21331448.004          47.500          49.000
 126367995.215 6  98468600.379 6  24047030.344    24047037.387
  24047037.586          39.100          40.200
 118232532.668 7  92129269.87545  22498900.383
  22498903.637          44.500          30.000
 115214322.019 7  89777417.862 7  21924553.000    21924557.457
  21924557.438          46.200          46.400
 119970099.198 7  93483224.96244  22829548.148
  22829551.723          42.300          28.900
 21  5 10  0 14 30.0000000  0 10G02G18G29G31G25G26G09G16G05G20
 132574055.926 6 103304466.25044  25228003.383
  25228007.551          40.300          24.200
 116498446.233 7  90778042.924 7  22168914.242    22168918.961
  22168918.926          43.000          47.600
 109171617.446 8  85068818.824 8  20774661.766    20774665.953
  20774665.980          48.000          49.800
 128149454.908 6  99856746.974 6  24386033.555    24386039.363
  24386039.047          39.400          38.700
 129518931.982 6 100923859.992 6  24646634.813    24646642.570
  24646642.293          36.300          38.900
 112070000.485 7  87327322.327 8  21326210.445    21326217.199
  21326217.344          47.900          48.700
 126411250.839 6  98502306.055 6  24055261.602    24055268.504
  24055269.137          39.400          41.100
 118147878.716 7  92063305.78844  22482790.664
  22482794.383          42.600          28.800
 115182460.774 7  89752590.939 7  21918489.891    21918494.133
  21918494.402          45.700          46.700
 119881058.939 7  93413842.98544  22812604.203
  22812607.883          42.900          29.100
 21  5 10  0 15  0.0000000  0 10G02G18G29G31G25G26G09G16G05G20
 132673582.319 6 103382019.20443  25246943.266
  25246946.809          39.000          23.200
 116405844.277 7  90705885.597 7  22151292.219    22151297.168
  22151297.105          44.100          46.600
 109214581.756 8  85102297.498 8  20782837.844    20782841.770
  20782842.012          48.600          50.000
 128253824.175 6  99938073.620 6  24405895.531    24405900.230
  24405899.828          40.000          38.900
 129640714.911 5 101018755.697 6  24669808.672    24669817.055
  24669816.578          35.700          37.900
 112043102.344 7  87306362.746 8  21321092.047    21321098.934
  21321098.879          46.900          48.300
 126455068.642 6  98536449.748 6  24063600.398    24063606.301
  24063606.680          40.900          41.000
 118063658.641 7  91997679.76544  22466764.266
  22466767.723          42.000          28.700
 115151237.669 7  89728261.261 7  21912548.609    21912552.859
  21912553.055          45.900          46.600
 119792374.012 7  93344737.89344  22795727.883
  22795731.727          42.600          29.200
 21  5 10  0 15 30.0000000  0 10G02G18G29G31G25G26G09G16G05G20
 132773209.925 6 103459650.96543  25265900.680
  25265905.809          37.800          22.000
 116313594.351 7  90634002.592 7  22133737.336    22133742.410
  22133742.082          43.800          46.800
 109258058.674 8  85136175.608 8  20791111.250    20791114.707
  20791114.906          49.000          49.400
 128358394.460 6 100019556.891 6  24425793.688    24425798.227
  24425798.273          40.900          38.600
 129762572.635 5 101113709.676 6  24692997.117    24693005.688
  24693005.676          32.400          36.900
 112016794.090 7  87285862.808 8  21316085.711    21316092.801
  21316092.625          46.500          48.800
 126499447.051 6  98571030.326 6  24072045.352    24072051.750
  24072051.613          40.000          41.200
 117979874.669 7  91932393.58545  22450820.789
  22450824.137          44.100          30.400
 115120654.045 7  89704429.875 7  21906728.727    21906733.602
  21906733.750          45.400          47.200
 119704047.218 7  93275911.86844  22778920.227
  22778923.512          43.600          29.400
 21  5 10  0 16  0.0000000  0 10G02G18G29G31G25G26G09G16G05G20
 132872937.696 6 103537360.89843  25284879.391
  25284881.660          41.500          23.900
 116221698.516 7  90562395.487 7  22116250.391    22116254.945
  22116255.387          43.500          47.300
 109302047.317 8  85170452.471 8  20799482.086    20799485.816
  20799486.016          49.500          50.000
 128463162.974 7 100101194.649 6  24445731.883    24445736.063
  24445735.566          44.600          38.300
 129884502.846 5 101208720.148 6  24716200.211    24716209.027
  24716208.348          33.700          37.200
 111991076.664 7  87265823.255 8  21311192.203    21311198.449
  21311198.500          47.500          48.700
 126544384.257 6  98606046.310 6  24080597.258    24080602.828
  24080603.117          41.600          41.600
 117896529.437 7  91867449.27945  22434960.633
  22434964.246          43.700          30.600
 115090711.171 7  89681097.779 7  21901030.430    21901034.801
  21901034.852          44.700          46.200
 119616080.908 7  93207366.72144  22762180.641
  22762184.223          42.600          29.100
 21  5 10  0 16 30.0000000  0  9G18G29G31G25G26G09G16G05G20
 116130158.696 7  90491065.789 7  22098831.102    22098835.398
  22098835.992          44.700          47.900
 109346546.228 8  85205126.945 8  20807949.773    20807953.797
  20807953.547          49.000          49.300
 128568126.671 7 100182984.504 6  24465705.141    24465710.094
  24465709.961          43.400          37.900
 130006502.980 6 101303785.105 6  24739415.828    24739424.883
  24739425.047          36.900          37.400
 111965950.926 7  87246244.761 8  21306410.555    21306417.449
  21306417.531          47.900          48.400
 126589878.299 7  98641496.227 7  24089253.805    24089260.320
  24089260.383          42.200          42.000
 117813625.375 7  91802848.71845  22419185.055
  22419188.039          43.400          30.500
 115061409.407 7  89658265.230 7  21895455.164    21895459.289
  21895459.281          45.600          46.900
 119528477.597 7  93139104.43844  22745509.805
  22745513.832          42.700          28.900
 21  5 10  0 17  0.0000000  0  9G18G29G31G25G26G09G16G05G20
 116038977.022 7  90420015.172 7  22081479.750    22081484.309
  22081484.754          44.000          47.100
 109391554.235 8  85240198.108 8  20816514.453    20816518.551
  20816518.570          48.400          49.800
 128673282.585 6 100264924.090 6  24485716.242    24485720.734
  24485720.488          41.600          37.200
 130128570.971 6 101398902.964 6  24762645.070    24762653.520
  24762652.777          37.800          37.900
 111941417.812 7  87227128.047 8  21301741.875    21301748.867
  21301749.105          47.700          49.200
 126635927.516 6  98677378.744 6  24098017.203    24098023.594
  24098023.617          41.000          41.800
 117731165.189 7  91738594.04945  22403493.406
  22403496.297          44.300          30.200
 115032749.967 7  89635933.211 7  21890001.234    21890005.555
  21890005.449          45.800          46.100
 119441239.842 7  93071127.01044  22728909.555
  22728912.824          42.400          29.100
 21  5 10  0 17 30.0000000  0  9G18G29G31G25G26G09G16G05G20
 115948155.740 7  90349245.386 7  22064197.031    22064201.652
  22064201.746          44.700          47.900
 109437070.141 8  85275665.044 8  20825176.156    20825180.168
  20825180.363          48.800          49.500
 128778628.055 7 100347011.412 6  24505761.922    24505766.652
  24505766.945          42.200          36.000
 130250704.709 6 101494072.061 6  24785886.680    24785895.520
  24785894.910          38.700          38.400
 111917478.429 7  87208473.989 8  21297186.969    21297193.789
  21297193.910          47.700          49.100
 126682530.302 6  98713692.578 6  24106885.109    24106891.043
  24106891.582          41.600          41.500
 117649151.251 7  91674687.10445  22387886.125
  22387889.254          44.200          32.000
 115004734.432 7  89614102.934 7  21884670.164    21884673.898
  21884673.961          46.100          46.300
 119354370.469 7  93003436.63044  22712378.688
  22712382.145          43.100          29.600
 21  5 10  0 18  0.0000000  0  8G18G29G31G26G09G16G05G20
 115857697.542 7  90278758.540 7  22046983.492    22046987.953
  22046988.355          44.200          47.600
 109483093.793 8  85311527.621 8  20833934.070    20833938.113
  20833937.984          48.400          49.300
 128884160.934 6 100429244.800 6  24525844.289    24525849.266
  24525848.961          41.400          38.300
 111894134.316 7  87190283.769 8  21292744.438    21292750.859
  21292751.109          47.800          49.400
 126729685.391 6  98750436.796 7  24115858.305    24115865.059
  24115865.473          40.400          42.600
 117567586.490 7  91611130.17245  22372364.922
  22372368.418          44.100          31.500
 114977363.969 7  89592775.313 7  21879461.492    21879465.582
  21879465.480          46.000          46.400
 119267872.441 7  92936035.61244  22695919.047
  22695922.246          43.800          29.700
 21  5 10  0 18 30.0000000  0  8G18G29G31G26G09G16G05G20
 115767603.752 7  90208555.609 8  22029839.141    22029843.582
  22029844.047          45.500          48.300
 109529622.786 8  85347783.965 8  20842788.086    20842792.016
  20842791.926          48.000          48.900
 128989877.523 6 100511621.319 6  24545961.063    24545967.035
  24545966.777          39.200          41.300
 111871385.584 7  87172557.493 8  21288415.789    21288422.246
  21288422.563          47.200          49.200
 126777390.202 6  98787609.337 7  24124936.039    24124943.371
  24124943.477          39.000          42.600
 117486472.903 7  91547924.78845  22356930.055
  22356932.762          45.000          31.600
 114950639.405 7  89571950.991 7  21874375.742    21874380.457
  21874380.102          46.000          46.100
 119181747.623 7  92868925.39645  22679529.727
  22679532.699          44.700          30.200
 21  5 10  0 19  0.0000000  0  8G18G29G31G26G09G16G05G20
 115677876.490 7  90138638.315 7  22012764.547    22012769.777
  22012769.992          44.200          47.800
 109576656.168 8  85384433.349 8  20851738.273    20851742.363
  20851742.230          48.200          48.300
 129095774.970 6 100594138.672 7  24566112.625    24566118.840
  24566118.492          38.300          42.300
 111849233.181 7  87155295.878 8  21284200.031    21284207.102
  21284207.121          47.200          49.500
 126825643.071 6  98825208.977 7  24134118.992    24134126.023
  24134126.078          39.800          42.900
 117405812.904 7  91485072.86745  22341580.594
  22341583.848          45.000          31.600
 114924561.592 7  89551630.625 7  21869413.367    21869417.621
  21869417.555          46.300          46.000
 119095998.689 7  92802108.05944  22663212.625
  22663215.953          44.600          29.300
 21  5 10  0 19 30.0000000  0  8G18G29G31G26G09G16G05G20
 115588517.930 7  90069008.311 7  21995760.234    21995764.527
  21995764.887          45.000          47.600
 109624192.657 8  85421474.776 8  20860784.188    20860787.797
  20860787.676          48.900          48.700
 129201850.480 6 100676794.824 6  24586299.180    24586303.949
  24586304.082          40.500          41.100
 111827678.098 7  87138499.712 8  21280098.672    21280105.215
  21280105.348          46.700          49.300
 126874442.114 6  98863234.212 7  24143404.875    24143412.535
  24143412.047          40.700          43.900
 117325609.017 7  91422576.35345  22326318.492
  22326321.367          43.300          31.200
 114899131.634 7  89531815.083 7  21864574.453    21864578.867
  21864578.520          46.800          46.500
 119010628.262 7  92735585.67644  22646966.859
  22646970.531          45.000          29.800
 21  5 10  0 20  0.0000000  0  8G18G29G31G26G09G16G05G20
 115499530.290 7  89999667.323 7  21978826.508    21978831.141
  21978831.227          44.900          47.700
 109672231.326 8  85458907.499 8  20869925.695    20869929.789
  20869929.355          48.400          48.600
 129308101.367 6 100759587.666 6  24606516.539    24606522.898
  24606522.906          37.700          41.100
 111806721.287 7  87122169.727 8  21276110.344    21276117.133
  21276117.164          47.800          49.000
 126923785.640 6  98901683.642 7  24152794.375    24152801.215
  24152801.727          40.900          43.000
 117245864.151 7  91360437.52545  22311142.914
  22311146.730          43.600          31.100
 114874350.195 7  89512504.881 7  21859858.859    21859862.512
  21859862.512          47.600          45.200
 118925638.783 7  92669360.13445  22630793.836
  22630797.402          44.400          31.500
 21  5 10  0 20 30.0000000  0  8G18G29G31G26G09G16G05G20
 115410915.288 7  89930616.717 7  21961963.500    21961967.961
  21961968.172          45.300          47.500
 109720770.511 8  85496730.222 8  20879161.977    20879166.234
  20879166.461          48.600          48.800
 129414524.404 6 100842514.554 6  24626768.844    24626774.551
  24626774.902          38.800          39.200
 111786363.264 7  87106306.335 8  21272236.148    21272243.211
  21272243.375          47.300          49.300
 126973671.431 6  98940555.674 7  24162287.664    24162294.262
  24162294.516          40.900          43.000
 117166580.367 7  91298657.98645  22296055.875
  22296059.668          43.600          30.700
 114850218.363 7  89493700.857 7  21855266.586    21855270.793
  21855270.809          47.300          45.600
 118841032.780 7  92603433.40545  22614693.648
  22614697.582          44.700          31.500
 21  5 10  0 21  0.0000000  0  8G18G29G31G26G09G16G05G20
 115322675.375 7  89861858.393 7  21945171.789    21945176.262
  21945176.473          45.100          47.100
 109769809.227 8  85534942.204 8  20888494.125    20888498.156
  20888498.203          48.600          49.100
 129521117.132 6 100925573.750 6  24647053.766    24647058.992
  24647058.352          39.900          38.600
 111766605.178 7  87090910.433 8  21268476.055    21268483.336
  21268483.516          47.000          49.500
 127024097.840 6  98979848.954 7  24171883.109    24171889.785
  24171890.027          40.900          42.000
 117087759.976 7  91237239.52445  22281057.148
  22281060.535          44.300          31.600
 114826737.013 7  89475403.722 7  21850797.617    21850802.309
  21850802.145          46.300          45.900
 118756813.072 7  92537807.68545  22598667.320
  22598670.605          43.900          30.700
 21  5 10  0 21 30.0000000  0  8G18G29G31G26G09G16G05G20
 115234812.113 7  89793393.551 7  21928452.133    21928456.227
  21928456.301          46.000          47.500
 109819345.848 7  85573542.165 8  20897920.563    20897924.156
  20897924.285          47.900          48.700
 129627876.276 7 101008762.646 6  24667369.258    24667373.977
  24667374.098          42.300          37.500
 111747447.389 7  87075982.290 8  21264830.664    21264837.398
  21264837.586          47.900          49.500
 127075062.659 6  99019561.835 7  24181582.141    24181588.766
  24181588.500          37.500          42.500
 117009405.462 7  91176184.07945  22266146.352
  22266149.715          44.100          30.700
 114803907.076 7  89457614.176 7  21846453.617    21846457.863
  21846457.883          46.700          45.800
 118672981.762 7  92472484.60645  22582714.578
  22582717.875          43.900          30.000
 21  5 10  0 22  0.0000000  0  8G18G29G31G26G09G16G05G20
 115147327.756 7  89725223.971 8  21911804.281    21911808.402
  21911808.688          46.300          48.300
 109869379.365 8  85612529.310 8  20907441.813    20907446.023
  20907445.902          48.800          49.100
 129734799.093 7 101092079.145 5  24687715.961    24687720.859
  24687720.273          42.100          34.300
 111728890.829 7  87061522.633 8  21261299.398    21261306.473
  21261306.391          46.000          49.600
 127126564.160 6  99059692.830 6  24191382.133    24191388.996
  24191389.031          39.300          41.500
 116931519.512 7  91115493.73445  22251325.383
  22251328.602          44.700          31.200
 114781728.865 7  89440332.457 7  21842233.273    21842237.340
  21842237.094          44.900          45.200
 118589541.408 7  92407466.18845  22566836.281
  22566840.152          43.800          30.300
 21  5 10  0 22 30.0000000  0  8G18G29G31G26G09G16G05G20
 115060224.604 7  89657351.422 8  21895229.047    21895233.730
  21895233.910          45.500          48.500
 109919908.580 7  85651902.715 8  20917057.234    20917061.316
  20917061.184          47.900          49.200
 129841883.186 6 101175521.243 5  24708092.938    24708098.055
  24708097.789          40.900          35.800
 111710936.487 8  87047532.236 8  21257883.164    21257890.004
  21257889.961          48.100          49.100
 127178600.500 5  99100240.626 6  24201283.453    24201291.188
  24201291.090          35.000          41.600
 116854104.550 7  91055170.39945  22236593.914
  22236596.906          44.700          31.800
 114760203.788 7  89423559.671 7  21838137.508    21838140.887
  21838140.996          47.100          45.400
 118506494.938 7  92342754.70245  22551033.531
  22551036.910          44.400          30.500
 21  5 10  0 23  0.0000000  0  8G18G29G31G26G09G16G05G20
 114973504.401 7  89589777.267 8  21878726.734    21878731.523
  21878731.250          45.700          48.100
 109970932.143 8  85691661.332 8  20926766.750    20926770.277
  20926770.203          48.200          48.800
 129949125.353 6 101259086.512 6  24728500.891    24728506.262
  24728505.680          39.500          37.300
 111693584.906 8  87034011.525 8  21254581.367    21254587.785
  21254587.934          48.400          49.800
 127231169.509 6  99141203.418 6  24211288.602    24211294.688
  24211294.840          39.100          40.000
 116777162.909 7  90995215.89045  22221952.523
  22221956.051          44.100          31.500
 114739332.637 7  89407296.447 7  21834166.023    21834169.801
  21834169.574          46.200          45.200
 118423844.463 7  92278351.74545  22535305.617
  22535308.723          44.900          30.900
 21  5 10  0 23 30.0000000  0  8G18G29G31G26G09G16G05G20
 114887169.759 7  89522503.544 7  21862297.875    21862302.762
  21862302.559          45.900          47.600
 110022449.190 7  85731804.484 8  20936569.938    20936574.180
  20936573.773          47.800          48.300
 130056523.137 6 101342772.995 6  24748938.406    24748943.086
  24748942.977          39.400          38.100
 111676837.334 7  87020961.472 8  21251394.258    21251400.914
  21251401.000          47.800          49.500
 127284269.759 6  99182580.283 6  24221391.070    24221399.309
  24221399.293          36.700          41.400
 116700697.506 7  90935632.48145  22207401.422
  22207405.102          44.600          32.800
 114719116.585 7  89391543.674 7  21830318.734    21830322.648
  21830322.449          46.600          45.900
 118341592.488 7  92214259.32545  22519653.719
  22519656.797          44.600          30.800
 21  5 10  0 24  0.0000000  0  8G18G29G31G26G09G16G05G20
 114801222.280 7  89455531.504 7  21845942.148    21845946.984
  21845946.992          46.000          47.800
 110074458.271 8  85772331.036 8  20946466.711    20946470.926
  20946470.867          49.100          48.800
 130164073.625 6 101426578.487 6  24769403.766    24769409.723
  24769409.559          38.600          39.500
 111660693.990 8  87008382.257 8  21248322.047    21248328.836
  21248328.594          48.200          49.100
 127337898.688 6  99224369.001 6  24231596.828    24231604.000
  24231604.172          38.000          40.400
 116624710.320 7  90876421.72145  22192940.992
  22192944.867          44.900          31.500
 114699555.966 7  89376301.651 7  21826596.094    21826600.359
  21826600.512          46.900          45.800
 118259741.762 7  92150479.56045  22504077.469
  22504080.348          44.600          30.300
 21  5 10  0 24 30.0000000  0  8G18G29G31G26G09G16G05G20
 114715663.822 7  89388862.581 7  21829661.328    21829665.230
  21829665.918          46.400          47.800
 110126957.359 7  85813239.412 8  20956456.789    20956461.219
  20956461.441          47.300          48.600
 130271773.442 6 101510500.345 6  24789897.805    24789904.363
  24789904.000          36.300          37.900
 111645155.427 8  86996274.285 8  21245365.297    21245372.148
  21245372.422          48.400          49.300
 127392054.279 6  99266568.170 6  24241902.008    24241909.797
  24241910.230          36.300          39.800
 116549203.595 7  90817585.32945  22178572.586
  22178576.168          43.800          31.900
 114680651.176 7  89361570.642 7  21822999.109    21823003.262
  21823002.965          46.700          45.900
 118178294.713 7  92087014.35145  22488578.953
  22488582.074          44.300          30.900
 21  5 10  0 25  0.0000000  0  8G18G29G31G26G09G16G05G20
 114630496.591 7  89322498.509 8  21813454.625    21813458.645
  21813458.934          46.000          48.200
 110179945.511 7  85854528.869 8  20966540.117    20966544.590
  20966544.520          47.900          48.800
 130379620.142 6 101594536.636 6  24810421.156    24810426.754
  24810426.332          38.400          40.200
 111630222.432 7  86984638.185 8  21242523.367    21242530.398
  21242530.445          47.800          49.500
 127446734.642 6  99309176.177 6  24252307.844    24252315.145
  24252315.301          37.600          40.500
 116474179.975 7  90759125.38445  22164296.359
  22164299.801          44.400          31.600
 114662403.120 7  89347351.389 7  21819526.727    21819530.316
  21819530.211          46.400          45.600
 118097253.757 7  92023865.58045  22473157.109
  22473160.570          44.100          30.200
 21  5 10  0 25 30.0000000  0  8G18G29G31G26G09G16G05G20
 114545722.550 7  89256440.829 7  21797322.164    21797326.805
  21797326.809          47.200          47.200
 110233421.373 7  85896198.363 8  20976716.609    20976720.801
  20976720.676          47.800          48.500
 130487610.693 6 101678685.035 6  24830971.555    24830977.344
  24830977.223          40.400          39.900
 111615895.618 7  86973474.440 8  21239797.078    21239804.430
  21239804.645          47.600          50.000
 127501937.560 6  99352191.451 6  24262812.969    24262820.320
  24262820.668          39.800          40.800
 116399641.634 7  90701043.58745  22150111.938
  22150115.668          44.000          32.400
 114644812.604 7  89333644.497 7  21816179.023    21816182.941
  21816182.727          45.900          46.400
 118016621.181 7  91961035.02745  22457813.281
  22457816.594          45.100          30.900
 21  5 10  0 26  0.0000000  0  8G18G29G31G26G09G16G05G20
 114461343.776 7  89190691.152 7  21781265.680    21781270.070
  21781270.133          46.700          47.800
 110287383.623 8  85938246.854 8  20986985.164    20986988.910
  20986989.063          48.100          48.800
 130595742.552 6 101762943.570 6  24851549.250    24851553.609
  24851553.176          41.600          40.000
 111602175.705 7  86962783.595 8  21237186.523    21237193.527
  21237193.777          45.700          49.900
 127557661.171 6  99395612.400 6  24273416.422    24273423.059
  24273423.461          39.600          38.500
 116325590.991 7  90643341.80545  22136020.813
  22136023.887          45.200          31.800
 114627880.098 7  89320450.339 7  21812957.000    21812960.656
  21812960.613          44.600          45.900
 117936399.626 7  91898524.75445  22442547.211
  22442550.805          44.400          31.200
 21  5 10  0 26 30.0000000  0  8G18G29G31G26G09G16G05G20
 114377362.122 7  89125250.926 7  21765284.625    21765288.910
  21765289.215          46.400          47.900
 110341830.950 7  85980673.339 8  20997346.375    20997350.602
  20997350.719          47.400          48.800
 130704012.835 6 101847309.876 6  24872151.883    24872157.703
  24872157.520          40.200          40.300
 111589063.083 8  86952565.976 8  21234690.813    21234698.543
  21234698.637          48.200          49.600
 127613903.223 6  99439437.376 6  24284119.070    24284125.914
